NOMER_ZVK;DATE_ZVK;ADDRES;RIDE_TYPE;OBJECT_CATEGORIE;geo_lon;geo_lat;PRIB_TIME;LOC_TIME;LPP_TIME;SQUARE_LOC;PERSONNEL
1600038;01.01.16 4:27;ул. Мясниковой 17.;Тушение пожара;Транспортные средства;82.9489196619608;55.1045400221006;6;3;111;130;12
1600071;01.01.16 10:08;ул. Шамшиных 83;Тушение пожара;Многоквартирный жилой дом;83.1183054088607;54.9421051819206;4;7;29;3;15
1600255;02.01.16 17:43;ул. Куприна 18;Тушение пожара;Многоквартирный жилой дом;82.9930433219149;55.0389113923482;10;1;5;0;0
1600284;02.01.16 22:09;ул. Первомайская 220.;Тушение пожара;Транспортные средства;83.0576052734681;54.976426691211;7;;;;8
1600287;02.01.16 22:52;ул. Новая Заря 14.;Тушение пожара;Многоквартирный жилой дом;82.9803536931711;55.0768932767818;5;12;32;15;21
1600319;03.01.16 9:21;ул. Фабричная 35.;Тушение пожара;Здания производственного назначения;82.9095448748345;55.0205666397248;7;6;36;5;13
1600410;03.01.16 21:00;ул. Выборная 29.;Тушение пожара;Одноквартирный жилой дом;82.9869314202307;54.9913132272854;8;6;132;81;26
1600412;03.01.16 21:40;мрн. Горский 2;Тушение пожара;Многоквартирный жилой дом;82.9087808405996;54.9936274944793;8;7;22;0;0
1600435;04.01.16 1:56;ул. Школьная 2-Я 43.;Тушение пожара;Прочие обьекты пожара;82.877747017178;55.0005447037171;9;3;115;20;14
1600436;04.01.16 2:16;ул. Сибиряков-Гвардейцев 44/7.;Тушение пожара;Транспортные средства;82.8965560313528;54.9668901263459;7;1;20;6;8
1600440;04.01.16 3:42;ул. Выборная 91/4.;Тушение пожара;Транспортные средства;83.0111776223295;55.0043456422544;10;1;14;2;11
1600561;05.01.16 0:24;ул. Гоголя 3.;Тушение пожара;Многоквартирный жилой дом;82.9152895436464;55.0423255899294;7;4;10;5;9
1600634;05.01.16 23:40;мрн. Горский 76;Тушение пожара;Многоквартирный жилой дом;82.8922188999245;54.9937298141261;7;13;9;2;15
1600637;06.01.16 2:42;Сержанта Коротаева 1.;Тушение пожара;Транспортные средства;82.9568085759388;54.9581112724535;8;1;7;3;9
1600642;06.01.16 5:24;ул. Новая Заря 17;Тушение пожара;Многоквартирный жилой дом;82.9750160723707;55.0786745162109;8;9;54;13;18
1600657;06.01.16 12:00;ул. Петухова 132;Тушение пожара;Многоквартирный жилой дом;82.9291685671692;54.9363735991713;10;4;36;18;19
1600700;06.01.16 21:31;ул. Прокопьевская 2-Я 10.;Тушение пожара;Одноквартирный жилой дом;82.979343601774;54.9460755549524;10;8;83;54;18
1600707;06.01.16 22:49;ул. Грибоедова 129.;Тушение пожара;Многоквартирный жилой дом;82.9713931491628;55.0186235538504;5;5;121;20;22
1600716;07.01.16 2:31;ул. Тургенева 155.;Тушение пожара;Транспортные средства;82.9560935435444;55.0180089958527;6;1;5;0;9
1600723;07.01.16 3:12;ул. Титова 18/1.;Тушение пожара;Транспортные средства;82.8763243558153;54.9849629066483;8;1;5;2;13
1600800;08.01.16 3:06;ул. Воинская 71.;Тушение пожара;Здания,сооружения и помещения предприятий торговли;82.978680208197;55.0192591845335;4;3;42;5;14
1600871;08.01.16 23:43;ул. Пархоменко 127.;Тушение пожара;;82.8376901236235;54.9862023311558;4;5;15;10;19
1600896;09.01.16 8:19;Ул.Ленина 85;Тушение пожара;Многоквартирный жилой дом;83.1104083955233;54.7592929309643;7;2;12;2;8
1600908;09.01.16 11:43;ул. Татьяны Снежиной 29.;Тушение пожара;Транспортные средства;83.0111475125622;55.0208212382596;10;1;1;3;8
1600987;10.01.16 6:30;ул. Ватутина 33/2.;Тушение пожара;Прочие обьекты пожара;82.9011550920501;54.982815577385;8;5;7;0,5;4
1601013;10.01.16 13:31;ул. Степная 60;Тушение пожара;Многоквартирный жилой дом;82.8637789192459;54.9784781378636;7;6;3;8;13
1601043;10.01.16 18:28;ул. Макаренко 9;Тушение пожара;Многоквартирный жилой дом;82.9574222114651;55.0985636630675;10;7;35;14;11
1601048;10.01.16 19:34;Микрорайон 8;Тушение пожара;Многоквартирный жилой дом;83.0574631102136;54.7523460248794;5;1;8;3;6
1601064;11.01.16 2:12;ул. Покрышкина 65.;Тушение пожара;Надворные постройки;82.7092610522676;54.9879253172097;3;1;56;9;7
1601186;12.01.16 7:55;спск. Романовский Пеший 7.;Тушение пожара;Одноквартирный жилой дом;82.9390486440647;55.0353964570004;7;3;97;0;0
1601255;12.01.16 18:41;ул. Сельскохозяйственная 39.;Тушение пожара;Надворные постройки;82.9315102775926;55.0928523967649;10;1;4;0;0
1601311;13.01.16 2:05;ул. Шоссейная 2-Я 202.;Тушение пожара;;82.8707519087995;55.0143506358121;10;2;213;46;23
1601335;13.01.16 11:24;ул. Красноармейская 186.;Тушение пожара;Одноквартирный жилой дом;82.9779455971635;55.0140242515177;5;17;95;72;15
1601461;14.01.16 21:49;ул. Бориса Богаткова 184.;Тушение пожара;Транспортные средства;82.966130066893;55.0283542308136;6;1;9;3;7
1601550;16.01.16 1:47;ул. Автогенная 77.;Тушение пожара;Здания,сооружения и помещения предприятий торговли;82.9727845898839;55.0117693207343;7;5;5;1;8
1601565;16.01.16 2:49;Ленина 27.;Тушение пожара;Прочие обьекты пожара;83.0948814226588;54.7637306443014;7;6;24;4;7
1601590;16.01.16 10:41;ул. Краузе 21.;Тушение пожара;Транспортные средства;82.9374886978108;55.11670470592;7;1;2;1;8
1601666;17.01.16 12:37;ул. Стартовая 43/1.;Тушение пожара;Прочие обьекты пожара;82.9173612245565;54.9979532536277;9;9;22;0;0
1601692;17.01.16 19:21;ул. Айвазовского 30.;Тушение пожара;Одноквартирный жилой дом;82.9863387029563;55.0523559215734;5;6;184;120;21
1601720;18.01.16 5:39;ул. Приграничная 6.;Тушение пожара;Складские здания;83.1329705733294;54.9354799659939;16;49;400;0;0
1601784;18.01.16 19:01;ул. Вокзальная 154.;Тушение пожара;Одноквартирный жилой дом;82.7158970449642;54.98542242008;4;6;73;66;9
1601811;19.01.16 5:58;ул. Кленовая 37.;Тушение пожара;Прочие обьекты пожара;83.0350174840638;55.0029194088135;10;1;134;40;7
1601817;19.01.16 9:07;ул. Бориса Богаткова 216;Тушение пожара;Многоквартирный жилой дом;82.9772497841972;55.0335348738618;7;2;1;1;9
1601876;19.01.16 23:00;ул. Сухарная 1-Я 75.;Тушение пожара;Одноквартирный жилой дом;82.8692970666941;55.0425965421341;7;2;21;3;7
1601905;20.01.16 5:02;ул. Гайдара 35.;Тушение пожара;;82.994634462571;54.9921473495075;9;12;724;64;34
1602032;20.01.16 22:05;ул. Танковая 32.;Тушение пожара;Строящиеся (реконструируемые) здания (сооружения);82.931181907984;55.0599698267663;10;4;30;20;16
1602043;21.01.16 1:28;ул. Гурьевская 147.;Тушение пожара;;82.9616223764116;55.0216898017818;7;5;107;30;16
1602045;21.01.16 2:25;пер. Балластный 21.;Тушение пожара;Одноквартирный жилой дом;82.7851848534526;55.0215262626319;10;5;189;60;19
1602060;21.01.16 8:42;ул. Бетонная 14/2.;Тушение пожара;Надворные постройки;82.914507314419;54.9587510323524;6;2;29;10;8
1602082;21.01.16 14:05;ул. Бориса Богаткова 24;Тушение пожара;Многоквартирный жилой дом;82.9436579522613;55.0104339020577;7;7;25;10;17
1602135;22.01.16 6:08;ул. Петухова 95/1.;Тушение пожара;Многоквартирный жилой дом;82.9495768102712;54.9412531285426;10;;;;
1602162;22.01.16 12:16;ул. Серафимовича 19;Тушение пожара;Многоквартирный жилой дом;82.881496218422;54.9771249188799;9;7;13;18;11
1602236;23.01.16 11:53;ул. Троллейная 93.;Тушение пожара;Транспортные средства;82.845714567212;54.9605437816066;9;;;;
1602254;23.01.16 15:42;ул. Титова 234/1.;Тушение пожара;Транспортные средства;82.8124003884065;54.9809020786376;7;;;;
1602278;23.01.16 19:57;ул. Владимировская 23.;Тушение пожара;Прочие обьекты пожара;82.8871975515943;55.0390862893287;6;1;26;7,5;9
1602316;24.01.16 2:46;ул. Столетова 2;Тушение пожара;Многоквартирный жилой дом;82.966607088461;55.0985360382586;8;6;56;15;17
1602362;24.01.16 12:04;ул. Выборная 4.;Тушение пожара;Транспортные средства;82.9850601739925;54.988003831322;10;1;1;0,5;7
1602550;26.01.16 15:08;пер. 2-Й Станиславского 17;Тушение пожара;Многоквартирный жилой дом;82.8724042130831;54.9812453669014;7;9;42;40;23
1602602;27.01.16 5:35;ул. Широкая 35.;Тушение пожара;Здания производственного назначения;82.8532029087543;54.9934789518108;5;1;18;6;13
1602633;27.01.16 12:27;ул. Речная 89.;Тушение пожара;Одноквартирный жилой дом;83.1439608237573;54.962545501876;9;5;55;100;13
1602642;27.01.16 13:34;ул. Каменская 44.;Тушение пожара;Многоквартирный жилой дом;82.9280404319085;55.0334149462077;5;14;48;15;24
1602666;27.01.16 21:50;ул. Ленина 84.;Тушение пожара;Прочие обьекты пожара;82.8998939217233;55.0365228058935;6;3;18;5;9
1602687;28.01.16 2:17;ул. Солидарности 83.;Тушение пожара;Транспортные средства;82.9533274240744;55.1542793954159;10;1;-6;0;0
1602692;28.01.16 3:41;ул. Анжерская 31.;Тушение пожара;Одноквартирный жилой дом;82.895276450472;55.1161875035134;9;8;105;15;13
1602726;28.01.16 10:41;ул. Фабричная 33/1.;Тушение пожара;Транспортные средства;82.9108785705876;55.0194075361464;7;2;5;1;8
1602733;28.01.16 13:51;ул. Немировича-Данченко 165.;Тушение пожара;Транспортные средства;82.9129635946202;54.987886391902;9;1;9;3;13
1602738;14.01.16 18:30;ул. Бориса Богаткова 264/1;Тушение пожара;Многоквартирный жилой дом;82.9868048152947;55.0412763715897;;;;0;0
1602739;28.01.16 15:31;ул. Толбухина 27/2;Тушение пожара;Многоквартирный жилой дом;83.0088841500524;55.0423200990717;9;5;18;3,5;13
1602741;28.01.16 17:09;шс. Гусинобродское 25;Тушение пожара;Многоквартирный жилой дом;83.009657692445;55.0380287365852;10;5;100;60;20
1602779;29.01.16 1:42;ул. Шамшиных 85.;Тушение пожара;Транспортные средства;83.1184107691089;54.9419442472915;6;1;2;4;8
1602785;29.01.16 0:02;Боровая 41.;Тушение пожара;Надворные постройки;83.0722786384102;54.7587943645926;7;3;63;40;9
1602848;22.01.16 19:30;ул. Учительская 8.;Тушение пожара;Многоквартирный жилой дом;82.9758960881001;55.0743027839786;;;;0;0
1602884;29.01.16 22:46;ул. Аэропорт 53;Тушение пожара;Многоквартирный жилой дом;82.9058506371708;55.0789122762408;9;;;;11
1602892;30.01.16 3:23;ул. Артиллерийская 146.;Тушение пожара;;82.9816607668687;55.0159496496865;9;;;0;0
1602968;30.01.16 19:31;ул. Дунаевского 21.;Тушение пожара;Многоквартирный жилой дом;82.9745026029493;55.1034991480489;5;12;38;10;20
1603014;30.01.16 23:39;ул. Серафимовича 14;Тушение пожара;Многоквартирный жилой дом;82.8804817056353;54.9791901698094;9;;;0;13
1603032;31.01.16 4:11;ул. Пролетарская 249;Тушение пожара;Одноквартирный жилой дом;82.9840132843878;55.0141941017288;8;5;96;97;16
1603068;31.01.16 11:37;ул. Трикотажная 47/2.;Тушение пожара;Здания,сооружения и помещения предприятий торговли;82.9628882044748;55.0619204704986;5;1;18;5;8
1603094;31.01.16 18:46;Еловая 4.;Тушение пожара;Надворные постройки;82.8725852045272;55.0689924245821;8;1;11;2;7
1603103;31.01.16 20:31;ул. Тюменская 21.;Тушение пожара;Надворные постройки;82.950901285823;54.9589848710681;9;2;14;1,5;8
1603116;31.01.16 23:02;ул. Путевая 17;Тушение пожара;Многоквартирный жилой дом;82.8880055025268;54.9974291803908;6;6;43;8;14
1603118;01.02.16 0:01;ул. Дегтярева 19.;Тушение пожара;Прочие обьекты пожара;83.0354886654469;55.0428992532018;8;1;19;1;8
1603132;01.02.16 2:55;ул. Сибиряков-Гвардейцев 56.;Тушение пожара;Здания производственного назначения;82.8958287269095;54.9438309269963;5;19;153;40;34
1603141;01.02.16 5:00;"ул. Флотская Гск ""Сигнал"" 28.";Тушение пожара;Прочие обьекты пожара;82.9942408892712;55.1680595198601;7;8;214;24;9
1603156;01.02.16 7:14;ул. Московская 259.;Тушение пожара;;82.9698796647192;55.0074592651629;3;10;116;20;15
1603194;01.02.16 14:38;ул. Блюхера 54;Тушение пожара;Многоквартирный жилой дом;82.9101617505182;54.992838496715;9;4;17;5;13
1603200;01.02.16 15:15;ул. Молодости 23.;Тушение пожара;Транспортные средства;82.9673309270422;54.8600125458715;3;;;0;0
1603331;02.02.16 4:16;ул. Героев Труда 9.;Тушение пожара;Транспортные средства;83.0789667062792;54.8616876397198;4;1;25;0;6
1603344;02.02.16 8:27;ул. Прокатная 81.;Тушение пожара;Одноквартирный жилой дом;82.8452814225915;54.9781614608042;7;3;6;2,2;13
1603394;02.02.16 20:08;ул. Одоевского 1/7.;Тушение пожара;Многоквартирный жилой дом;83.109191601651;54.9383450346297;10;;;0;8
1603401;02.02.16 21:50;ул. Станционная 58/1.;Тушение пожара;Надворные постройки;82.8304164614027;54.9969074387229;6;3;23;12;14
1603417;03.02.16 3:42;ул. Машиностроителей 17.;Тушение пожара;Одноквартирный жилой дом;82.9773108902875;55.0750289760782;8;2;141;70;10
1603486;03.02.16 18:20;ул. Абхазская 12 А.;Тушение пожара;Надворные постройки;83.0672152451284;54.8893479648738;10;1;29;0;0
1603507;04.02.16 1:47;Ул.Гоголя 63.;Тушение пожара;Одноквартирный жилой дом;83.0936477842572;54.7560750815797;9;1;1;2;7
1603566;04.02.16 19:47;ул. Жуковского 117;Тушение пожара;Многоквартирный жилой дом;82.8920261367997;55.0590896732986;6;1;7;1;7
1603572;04.02.16 22:26;ул. Авиастроителей 1/8;Тушение пожара;Многоквартирный жилой дом;82.9608339870162;55.0679068692196;7;15;31;2;12
1603674;06.02.16 7:31;ул. Аникина Михаила 35/1;Тушение пожара;Многоквартирный жилой дом;82.9490566935363;54.9646904482158;10;;;0;0
1603706;06.02.16 16:41;ул. Карла Либкнехта 85.;Тушение пожара;Одноквартирный жилой дом;82.9603772596799;55.0228725832257;6;7;9;0;7
1603850;09.02.16 3:59;ул. Бакинская 6.;Тушение пожара;Транспортные средства;82.8578011636639;54.9795730403595;;;;0;0
1603852;09.02.16 6:48;ул. Связистов 160.;Тушение пожара;Транспортные средства;82.833187699213;54.9623887365601;9;8;62;21;10
1603856;09.02.16 10:57;ул. Верещагина 44.;Тушение пожара;Одноквартирный жилой дом;83.0130394285195;55.0724307130729;9;4;16;3;10
1603940;10.02.16 13:03;ул. Станционная 78.;Тушение пожара;Транспортные средства;82.8013959693175;54.9966797318273;1;1;3;1;11
1603955;10.02.16 19:51;Химзаводская 11/89.;Тушение пожара;Транспортные средства;83.1354784229952;54.7364180142709;5;1;6;1;8
1603977;11.02.16 2:34;ул. Свечникова 1.;Тушение пожара;Транспортные средства;82.9451451838005;55.1102826970817;6;1;24;2;10
1603985;11.02.16 7:12;ул. Зеленхозовская 77;Тушение пожара;Одноквартирный жилой дом;83.0074995864937;55.0611511062826;8;17;288;47;31
1604013;11.02.16 16:14;ул. Лазурная 14.;Тушение пожара;Транспортные средства;83.0123350157762;55.0339134342252;9;1;6;4;8
1604041;11.02.16 22:23;ул. Курганская 38 А.;Тушение пожара;Транспортные средства;82.8423403380191;54.970908484844;13;;;0;0
1604055;12.02.16 2:40;шс. Гусинобродское 19/1.;Тушение пожара;Транспортные средства;83.0080298827434;55.0389051793113;10;2;13;4;5
1604062;12.02.16 8:50;ул. Тульская 365.;Тушение пожара;Надворные постройки;82.8583549666333;54.962133015615;10;9;106;19;16
1604098;13.02.16 0:28;ул. Дегтярева 38.;Тушение пожара;;83.0299442479177;55.042362955111;9;7;334;80;28
1604122;13.02.16 7:47;ул. Татьяны Снежиной 29/3.;Тушение пожара;Транспортные средства;83.0113250242248;55.0217136267905;10;1;6;3;8
1604241;15.02.16 1:40;ул. Юбилейная 86.;Тушение пожара;Надворные постройки;83.0578890595664;54.9497951337547;10;2;58;12;7
1604315;16.02.16 8:46;ул. Шамшиных 16.;Тушение пожара;Многоквартирный жилой дом;83.1138471164906;54.9481725303921;2;1;1;1;8
1604353;17.02.16 1:45;ул. Ивлева 110.;Тушение пожара;Надворные постройки;83.0003003702255;54.870304849449;10;2;32;3;5
1604359;17.02.16 4:18;ул. Широкая 125.;Тушение пожара;Прочие обьекты пожара;82.844447018871;54.9930861627327;2;1;25;2;8
1604363;17.02.16 7:39;ул. Петухова 69.;Тушение пожара;Прочие обьекты пожара;82.9054347591107;54.9426945288516;8;1;185;16;20
1604392;17.02.16 11:33;пер. Трикотажный 2-Й 19.;Тушение пожара;Одноквартирный жилой дом;82.9828130087088;55.0539512006383;9;5;188;90;21
1604468;17.02.16 20:32;ул. Понтонная 22.;Тушение пожара;Транспортные средства;82.8931341958268;55.0259487279122;7;1;1;8;9
1604491;18.02.16 2:06;ул. Артиллерийская 41.;Тушение пожара;Одноквартирный жилой дом;82.959292335307;55.0255347432831;9;6;72;60;18
1604494;18.02.16 3:43;шс. Гусинобродское 20.;Тушение пожара;Прочие обьекты пожара;83.0024797675693;55.0353026482309;5;5;40;15,5;18
1604495;18.02.16 4:03;ул. Кошурникова 46.;Тушение пожара;Прочие обьекты пожара;82.9871076588292;55.0304331602499;8;7;69;9;23
1604597;19.02.16 3:30;ул. Большевистская 165;Тушение пожара;Многоквартирный жилой дом;82.9698842229482;54.9968908267424;10;;;0;0
1604616;19.02.16 11:30;ул. Невельского 63;Тушение пожара;Многоквартирный жилой дом;82.8102248900326;54.9918516326898;5;3;8;3;17
1604618;19.02.16 12:22;пр-т. Димитрова 16.;Тушение пожара;Транспортные средства;82.9528821314062;55.0677051889178;3;1;7;1,5;10
1604663;20.02.16 7:57;ул. Мелиоративная 142.;Тушение пожара;Одноквартирный жилой дом;83.0702290247207;54.9294815305326;10;7;307;60;12
1604667;20.02.16 8:30;ул. Пушкина 36.;Тушение пожара;Надворные постройки;82.7092797538719;55.0015915350873;10;8;39;20;6
1604730;21.02.16 2:58;ул. Титова 18/1.;Тушение пожара;Транспортные средства;82.8763243558153;54.9849629066483;6;1;29;7;13
1604742;21.02.16 8:40;ул. Доватора 19/3.;Тушение пожара;Многоквартирный жилой дом;83.0012451310344;55.0433276195994;8;1;6;1;6
1604798;21.02.16 18:42;ул. Котовского 48.;Тушение пожара;Прочие обьекты пожара;82.8601765074293;54.9901654670804;5;3;8;15;10
1604846;22.02.16 3:29;Ул.Радищева 42.;Тушение пожара;Надворные постройки;83.1016561664941;54.7498972219945;9;2;161;60;8
1604848;22.02.16 4:52;ул. Гурьевская 68.;Тушение пожара;Транспортные средства;82.9532410034397;55.01409265635;5;3;14;1,5;8
1604862;21.02.16 6:00;ул. Ковальчук 272/3;Тушение пожара;Многоквартирный жилой дом;82.9202274210923;55.0609996022606;;;;0;0
1604892;22.02.16 14:20;ул. Красина 51.;Тушение пожара;Здания,сооружения и помещения предприятий торговли;82.9609534478583;55.0464204931581;4;1;16;3;9
1604896;22.02.16 12:37;Суворова 4;Тушение пожара;Многоквартирный жилой дом;83.0904025838636;54.7634437135537;7;4;9;4;10
1604908;22.02.16 17:36;ул. Станционная 38.;Тушение пожара;Здания производственного назначения;82.8452497160278;54.9974959129367;7;7;216;80;24
1604926;22.02.16 21:06;ул. Народная 21/1;Тушение пожара;Многоквартирный жилой дом;82.9437952616374;55.0682966113919;10;3;20;3;17
1604928;22.02.16 21:39;ул. Связистов 141;Тушение пожара;Многоквартирный жилой дом;82.8418156698442;54.9648800589498;8;;;0;0
1604934;22.02.16 23:18;ул. Комсомольская 3;Тушение пожара;Многоквартирный жилой дом;82.9660771979565;54.9555973529852;9;6;23;12;21
1604958;23.02.16 7:11;ул. Узорная 19.;Тушение пожара;Надворные постройки;83.0793909714928;54.9217537754588;10;2;87;5;7
1605009;24.02.16 2:07;ул. Вертковская 96.;Тушение пожара;Надворные постройки;82.8623551031839;54.9744404887779;8;5;112;15;13
1605012;24.02.16 5:54;ул. Болотная 49.;Тушение пожара;Одноквартирный жилой дом;82.8790759831065;55.0208278442909;10;5;79;30;19
1605035;24.02.16 11:23;ул. Герцена 10;Тушение пожара;Многоквартирный жилой дом;82.9655178774726;54.9579898215241;10;9;11;8;18
1605043;24.02.16 14:09;пер. 2-Й Пархоменко 11;Тушение пожара;Многоквартирный жилой дом;82.8613210882696;54.9870459070686;4;9;146;20;29
1605062;24.02.16 18:31;Турухановская 95/6.;Тушение пожара;Обьект не определен (неучетные пожары);82.9610314002352;55.1636313748089;12;3;40;;
1605259;27.02.16 3:54;ул. Ковальчук 396/1.;Тушение пожара;Транспортные средства;82.9287708797061;55.0643163104692;6;1;8;0,5;7
1605293;27.02.16 20:34;ул. Титова 250.;Тушение пожара;Прочие обьекты пожара;82.799122692238;54.9790383032042;10;1;80;24;14
1605306;27.02.16 21:31;ул. Березовская 5.;Тушение пожара;Одноквартирный жилой дом;82.9481830019194;54.8653623446088;4;2;65;12;9
1605308;27.02.16 21:48;ул. Фабричная 4/1.;Тушение пожара;Транспортные средства;82.9225563805653;55.015580219465;7;1;2;3;10
1605329;28.02.16 8:11;ул. Титова 13.;Тушение пожара;Прочие обьекты пожара;82.8816519953876;54.982155577012;8;8;16;6;14
1605365;28.02.16 20:00;ул. Твардовского 4;Тушение пожара;Многоквартирный жилой дом;83.1281110481689;54.9399505331983;15;11;32;6;25
1605426;29.01.16 15:07;ул. Толстого 149;Тушение пожара;Многоквартирный жилой дом;82.95671191278;55.0153536475882;;;;0;0
1605483;01.03.16 7:47;ул. Зорге 233;Тушение пожара;Многоквартирный жилой дом;82.9223095106546;54.9300183940755;10;;;4;12
1605554;02.03.16 3:47;ул. Зеленодолинская 7.;Тушение пожара;Транспортные средства;83.0720180017297;55.0452969127901;10;1;14;6;7
1605597;02.03.16 22:17;ул. Тульская 499.;Тушение пожара;Одноквартирный жилой дом;82.8405323928749;54.9516944131417;10;5;27;8;10
1605602;03.03.16 4:18;ул. Невельского 63.;Тушение пожара;Многоквартирный жилой дом;82.8102248900326;54.9918516326898;6;;;0;0
1605667;04.03.16 7:59;ул. Бориса Богаткова 196;Тушение пожара;Многоквартирный жилой дом;82.9732907371048;55.0328467401538;9;;;;
1605798;05.03.16 21:45;ул. Маковского 76.;Тушение пожара;Одноквартирный жилой дом;82.9438805191295;55.0219151559737;7;11;116;0;14
1605955;07.03.16 23:56;ул. Чемская 10;Тушение пожара;Многоквартирный жилой дом;82.9641603938097;54.95331610353;10;;;;
1605964;08.03.16 5:14;ул. Холодильная 18.;Тушение пожара;Транспортные средства;82.883911446998;55.0516074550204;5;1;1;1,5;5
1606002;08.03.16 16:08;ул. Белореченская 45.;Тушение пожара;Надворные постройки;82.9674575517142;55.1699725792056;5;3;80;24;10
1606124;09.03.16 20:35;ул. Учительская 21.;Тушение пожара;Прочие обьекты пожара;82.9684899437394;55.0785581996703;4;1;54;18;17
1606273;11.03.16 18:05;ул. Троллейная 93.;Тушение пожара;Транспортные средства;82.845714567212;54.9605437816066;7;;;;13
1606293;11.03.16 23:38;ул. Крылова 45.;Тушение пожара;Транспортные средства;82.9331908447559;55.042417521317;5;1;9;2;7
1606297;12.03.16 1:16;ул. Ученых 5;Тушение пожара;Многоквартирный жилой дом;83.1067754224058;54.8344313941103;8;8;16;2;15
1606298;12.03.16 3:34;ул. Рабочая 1.;Тушение пожара;Надворные постройки;82.6866818313273;54.9865960556214;6;4;68;36;7
1606328;12.03.16 14:09;ул. Арсенальная 1.;Тушение пожара;Складские здания;82.7032946224204;55.0058503991951;10;11;369;557;29
1606354;12.03.16 17:32;ул. Коммунстроевская 5.;Тушение пожара;Надворные постройки;82.9592935334488;55.0029923238144;5;4;34;8;10
1606438;13.03.16 12:39;ул. Шмидта 8.;Тушение пожара;Многоквартирный жилой дом;83.0828854357597;54.9746137269748;2;3;61;10;26
1606553;14.03.16 18:04;ул. Доватора 31.;Тушение пожара;Многоквартирный жилой дом;83.0000079223424;55.0395587876062;9;12;15;5;8
1606554;14.03.16 18:22;ул. Пойменная 22.;Тушение пожара;Надворные постройки;83.0133938643118;55.0698289626197;9;15;157;80;19
1606566;14.03.16 22:01;ул. Лазурная 2;Тушение пожара;Многоквартирный жилой дом;83.0046387026754;55.0333265355804;9;;;2;
1606621;16.03.16 2:54;ул. Индустриальная 7.;Тушение пожара;Транспортные средства;82.9691122740484;55.0554052760771;7;1;4;0,3;6
1606899;20.03.16 1:14;плат. Ключ-Камышенское 8;Тушение пожара;Многоквартирный жилой дом;83.0413057036536;54.9875971640383;10;7;10;4;10
1606908;20.03.16 2:43;ул. Волховская 37 К.3.;Тушение пожара;Строящиеся (реконструируемые) здания (сооружения);82.8350697393292;54.9712256072332;14;;3;1;12
1606944;20.03.16 14:47;ул. Приграничная 1.;Тушение пожара;Прочие обьекты пожара;83.1421647976504;54.9371167749646;10;33;53;50;19
1606946;20.03.16 15:10;ул. Жемчужная 22.;Тушение пожара;Транспортные средства;83.0909491744463;54.8371577381899;4;1;8;2;5
1606964;20.03.16 20:15;ул. Гранитная 37.;Тушение пожара;Надворные постройки;83.1109106099787;54.9405155925735;10;4;38;6;7
1606965;20.03.16 20:26;ул. Киевская 20.;Тушение пожара;Транспортные средства;82.8473402230178;54.9910968833568;4;1;1;0,5;13
1606968;20.03.16 21:23;ул. Озерная 122.;Тушение пожара;Надворные постройки;82.835374496287;54.9853454197695;4;1;38;20;13
1606999;21.03.16 8:45;ул. Чехова 387.;Тушение пожара;;82.9817895044623;55.0059812980231;6;7;28;15;9
1607014;21.03.16 11:58;ул. Мира 62.;Тушение пожара;Здания производственного назначения;82.9352799150413;54.9607686714518;9;28;39;100;33
1607024;21.03.16 14:55;пер. 1-Й Крашенинникова 7.;Тушение пожара;Здания производственного назначения;82.8684630828276;54.9838996764115;6;11;48;40;17
1607074;22.03.16 2:15;ул. Бориса Богаткова 171.;Тушение пожара;Транспортные средства;82.9696926743026;55.0345790879511;9;;;;
1607154;23.03.16 4:56;ул. Газонная 10.;Тушение пожара;Одноквартирный жилой дом;83.1152521472298;54.9491127401471;10;7;75;70;11
1607183;23.03.16 13:21;ул. 2-Ая Прокопьевская 99.;Тушение пожара;Надворные постройки;82.9899971542102;54.9402660796699;11;2;42;62;14
1607189;23.03.16 13:56;ул. Татарская 83.;Тушение пожара;Надворные постройки;82.9345902006991;55.051914590584;10;3;12;1,5;12
1607288;22.03.16 10:00;ул. Петухова 87.;Тушение пожара;Транспортные средства;82.9339700269656;54.9410560262728;;;;0;0
1607375;25.03.16 16:35;ул. Добролюбова 138;Тушение пожара;Многоквартирный жилой дом;82.9746797365217;55.0251261668733;6;6;47;6;20
1607454;26.03.16 23:24;ул. Севастопольская 18.;Тушение пожара;Надворные постройки;83.0132962067229;55.0570865199247;7;2;32;7;11
1607460;27.03.16 6:16;ул. Лазурная 4/2.;Тушение пожара;Прочие обьекты пожара;83.0085068347319;55.0334709151051;9;7;32;3;19
1607466;27.03.16 7:12;ул. Осоавиахима 99.;Тушение пожара;Одноквартирный жилой дом;82.9504068970108;55.0639774139687;10;5;23;25;17
1607474;27.03.16 15:35;"с/о. ""Заря"" 59.";Тушение пожара;Надворные постройки;82.9073312435349;54.9372556825682;10;2;49;5;11
1607490;27.03.16 18:13;ул. Центральная 139.;Тушение пожара;;83.0715586480475;54.9244394994012;10;4;127;75;21
1607501;27.03.16 19:59;ул. Линейная 51.;Тушение пожара;Одноквартирный жилой дом;82.7156988300141;54.9885320346414;2;1;13;1,5;4
1607530;28.03.16 2:57;ул. Фрунзе 19.;Тушение пожара;Прочие обьекты пожара;82.9293578821999;55.0377448512417;5;20;6;4;11
1607591;28.03.16 23:12;ул. Чигорина 20/1.;Тушение пожара;Транспортные средства;82.9573906705405;54.9607186550887;8;;;;
1607592;28.03.16 23:41;Сибиряков-Гвардейцев 62.;Тушение пожара;Здания, помещения сервисного обслуживания населения;82.8963733418498;54.9392114044516;5;;;0;0
1607672;30.03.16 4:42;ул. Петухова 101/3.;Тушение пожара;Многоквартирный жилой дом;82.9540653402969;54.9439975237281;10;;;0;0
1607689;30.03.16 18:26;ул. Стартовая 43/1.;Тушение пожара;Прочие обьекты пожара;82.9173612245565;54.9979532536277;10;3;3;4;15
1607732;31.03.16 10:39;ул. Станционная 84/1.;Тушение пожара;Транспортные средства;82.7758899766132;54.9993112201778;4;1;4;6;12
1607769;31.03.16 18:03;ул. Кошурникова 55;Тушение пожара;Многоквартирный жилой дом;82.9832211733728;55.036937974964;8;1;36;3;14
1607796;01.04.16 1:56;ул. Толстого 149.;Тушение пожара;Транспортные средства;82.95671191278;55.0153536475882;7;2;13;4;9
1607938;02.04.16 18:59;Добролюбова 36 К.1.;Тушение пожара;Транспортные средства;82.9558245504746;55.0125746566824;3;1;20;10;7
1607967;02.04.16 23:38;ул. Шлюзовая 14.;Тушение пожара;Транспортные средства;83.0420085226462;54.8518378056572;7;2;2;7;14
1607977;03.04.16 2:42;ул. Молодости 30;Тушение пожара;Многоквартирный жилой дом;82.971793081931;54.8593176216791;5;5;6;1,5;5
1608044;04.04.16 11:33;ул. Гончарная 13.;Тушение пожара;Надворные постройки;82.8982001807228;55.0792281776492;4;2;15;1;8
1608045;04.04.16 11:33;ул. Гоголя 32/1.;Тушение пожара;Многоквартирный жилой дом;82.9288948600939;55.0428459321193;7;2;7;1;12
1608073;05.04.16 0:20;ул. Менделеева 11.;Тушение пожара;Транспортные средства;82.9654081048384;55.0760232727777;10;1;14;2,5;8
1608099;05.04.16 9:48;ул. Есенина 65;Тушение пожара;Многоквартирный жилой дом;82.9937087520023;55.0352650217697;9;2;9;2;9
1608188;06.04.16 5:42;ул. Выборная 21;Тушение пожара;Многоквартирный жилой дом;82.9864622425779;54.9904074130701;6;1;52;1;14
1608190;06.04.16 5:46;ул. Гаранина 4.;Тушение пожара;Транспортные средства;82.9641544978596;55.0275931104978;9;1;12;2;4
1608325;07.04.16 19:26;ул. Тракторная 5.;Тушение пожара;;82.9929921819325;55.0538971177304;9;1;22;1;9
1608336;08.04.16 1:46;пер. 2-Й Порядковый 9.;Тушение пожара;Многоквартирный жилой дом;83.0075181557809;55.075002631579;5;1;1;1;17
1608391;08.04.16 22:58;ул. Ковальчук 258;Тушение пожара;Многоквартирный жилой дом;82.9102442088383;55.0564793865324;7;1;7;3;9
1608392;08.04.16 23:43;ул. Петухова 106;Тушение пожара;Многоквартирный жилой дом;82.9223154824052;54.9386700161837;10;;;;
1608453;09.04.16 18:27;ул. Вокзальная 14/2.;Тушение пожара;Многоквартирный жилой дом;82.7290640745585;54.9913954755495;10;10;13;5;9
1608465;09.04.16 21:08;ул. Невельского 13.;Тушение пожара;Прочие обьекты пожара;82.8305435186668;54.99295799917;7;4;37;0;0
1608499;10.04.16 2:31;ул. Крамского 42.;Тушение пожара;Здания производственного назначения;82.990466413734;55.0233278861894;8;1;68;10;10
1608517;10.04.16 11:12;ул. Славянская 136.;Тушение пожара;Надворные постройки;82.9571403507906;55.0635723727618;7;1;31;15;16
1608568;10.04.16 22:30;ул. Гастелло 5.;Тушение пожара;Надворные постройки;82.9012806917744;55.0780493314033;8;7;144;150;10
1608593;11.04.16 11:49;прзд. Северный 43.;Тушение пожара;Надворные постройки;82.9023963187528;55.0695384992964;5;1;20;3;9
1608594;11.04.16 12:09;ул. Чулымская 3-Я 116.;Тушение пожара;Одноквартирный жилой дом;82.8977251093487;55.0100532426657;10;18;153;150;21
1608630;11.04.16 23:35;ул. Богдана Хмельницкого 1.;Тушение пожара;Прочие обьекты пожара;82.9343036626005;55.0665817802938;9;2;2;15;8
1608632;12.04.16 2:53;ул. Декабристов 201.;Тушение пожара;Транспортные средства;82.9650284737423;55.0029235376729;7;1;26;5;7
1608640;12.04.16 7:02;ул. Ученическая 17;Тушение пожара;Многоквартирный жилой дом;83.124303012277;54.9401900087229;10;7;23;6;7
1608722;12.04.16 22:35;шс. Гусинобродское 33.;Тушение пожара;Здания,сооружения и помещения предприятий торговли;83.0215221807657;55.0404104118582;7;11;57;3;17
1608754;13.04.16 8:53;Ул.Почтовая 8.;Тушение пожара;Многоквартирный жилой дом;83.0088161504994;55.051626484341;10;1;28;6;12
1608782;13.04.16 18:43;ул. Хинганская 1.;Тушение пожара;Прочие обьекты пожара;82.7827374047779;55.0064020963609;5;21;323;350;21
1608784;13.04.16 18:46;шс. Старое 7.;Тушение пожара;Надворные постройки;82.909919304734;55.1200893094283;10;7;60;100;15
1608814;14.04.16 2:43;ул. Авиационная 25.;Тушение пожара;Транспортные средства;82.9978739596493;55.057696305476;9;;;;
1608816;14.04.16 3:03;ул. Зорге 43.;Тушение пожара;Транспортные средства;82.9060913385609;54.9351789959127;8;1;7;6;6
1608817;14.04.16 2:35;Ул.Некрасова 75.;Тушение пожара;Надворные постройки;83.091909992036;54.7542151846992;6;4;78;36;7
1608860;14.04.16 13:57;ул. Твардовского 22/2;Тушение пожара;Многоквартирный жилой дом;83.1215094483897;54.9342243513946;10;;;2;11
1609032;15.04.16 10:50;ул. Амосова 68.;Тушение пожара;Прочие обьекты пожара;82.9034150375989;55.1195138688043;7;1;4;;
1609198;15.04.16 20:11;ул. Солидарности 86.;Тушение пожара;Прочие обьекты пожара;82.9523995156332;55.1570367724344;9;1;14;;
1609214;15.04.16 21:13;ул. Эйхе 11.;Тушение пожара;Транспортные средства;83.098846014156;54.9747327677794;2;1;1;2;8
1609339;16.04.16 13:45;ул. Солидарности 95.;Тушение пожара;Садовый дом, дача;82.9526583611506;55.1528736978288;20;5;82;;
1609399;16.04.16 15:15;Улица 42 21.;Тушение пожара;Садовый дом, дача;83.0949144835314;54.8427525880607;16;1;117;30;8
1609402;16.04.16 15:20;ул. Петухова 51/2.;Тушение пожара;Транспортные средства;82.8761313756377;54.9517151824062;10;3;26;14;12
1609480;16.04.16 18:08;ул. Солидарности 87.;Тушение пожара;Обьект не определен (неучетные пожары);82.9543747754314;55.1536653512565;11;3;2;;
1609525;16.04.16 19:46;ул. Покрышкина 46.;Тушение пожара;Надворные постройки;82.7105029187209;54.9887933362368;3;4;35;20;8
1609659;17.04.16 9:30;ул. Приграничная 4.;Тушение пожара;Транспортные средства;83.1367692331845;54.9280086548965;9;3;18;2;8
1610138;18.04.16 2:33;ул. Одоевского 1/8.;Тушение пожара;Транспортные средства;83.1063042319121;54.9375742766995;16;1;14;0;8
1610145;18.04.16 3:38;ул. Лескова 29.;Тушение пожара;Транспортные средства;82.9535236446633;55.0237220099794;9;1;14;4;8
1610216;18.04.16 13:57;ул. Нахимова 18.;Тушение пожара;Надворные постройки;83.110344839928;54.9592436637826;10;4;45;33;8
1610959;20.04.16 2:44;ул. Дениса Давыдова 6.;Тушение пожара;Транспортные средства;82.9710917391181;55.0738802934847;10;1;10;3;11
1610966;20.04.16 6:13;ул. Бородина 14.;Тушение пожара;Прочие обьекты пожара;82.866876100523;54.9317151009432;9;1;5;4;10
1611074;20.04.16 15:47;ул. Кубовая 105/1;Тушение пожара;Многоквартирный жилой дом;82.8935054633642;55.1276145347192;10;9;40;27;11
1611126;20.04.16 17:26;ул. Глинки 4.;Тушение пожара;Прочие обьекты пожара;82.9646779429863;55.0490250547923;4;4;48;5;11
1611145;20.04.16 18:01;ул. Объединение 54.;Тушение пожара;;82.9593584767331;55.0926791215582;9;8;111;150;22
1611294;21.04.16 2:47;ул. Юбилейная 48.;Тушение пожара;Надворные постройки;83.0550208410446;54.9527342604566;12;2;42;30;10
1611397;21.04.16 12:41;ул. Солидарности 79/2.;Тушение пожара;Прочие обьекты пожара;82.9562442817235;55.1626196748;10;11;8;;
1611776;22.04.16 8:44;ул. Зоологическая 64.;Тушение пожара;Одноквартирный жилой дом;83.0608465543223;54.8871198937718;6;2;103;230;19
1612039;22.04.16 21:32;Ул.Радищева 101.;Тушение пожара;Надворные постройки;83.1117388567308;54.7470566498901;7;1;61;36;6
1612067;22.04.16 23:59;ул. Русская 1.;Тушение пожара;Транспортные средства;83.0416684324284;54.8494107707221;9;;;1,5;10
1612074;23.04.16 0:49;ул. Балластная 15.;Тушение пожара;Транспортные средства;82.7865363965219;55.0222280620613;9;1;7;5;8
1612220;24.04.16 0:21;ул. Волховская 33.;Тушение пожара;Прочие обьекты пожара;82.8346540856906;54.9701211384123;10;4;4;3;7
1612258;24.04.16 14:00;Максима Горького 1.;Тушение пожара;Многоквартирный жилой дом;83.1107179229704;54.7614351505726;5;1;52;9;7
1612351;25.04.16 4:04;ул. Лесосечная 18.;Тушение пожара;Транспортные средства;83.0932008869868;54.8911227106797;10;1;13;6;6
1612364;25.04.16 5:04;ул. Челюскинцев 10.;Тушение пожара;Транспортные средства;82.9025273702252;55.036758224684;5;1;1;3;9
1612444;25.04.16 17:32;ул. Дюканова 16 КОР.1.;Тушение пожара;Здания, помещения сервисного обслуживания населения;82.8359346336087;54.9911750388681;3;2;6;3;11
1612648;27.04.16 0:09;ул. Солидарности 49.;Тушение пожара;Одноквартирный жилой дом;82.977239261265;55.1579939600292;9;13;71;30;15
1612759;27.04.16 21:02;с/о. Сибирский Мичуринец 26.;Тушение пожара;Садовый дом, дача;82.9513534648003;55.0702657878337;10;2;134;40;8
1612823;28.04.16 11:58;ул. Серебренниковская 4/1.;Тушение пожара;Места откр. хранения веществ,материалов, с/х угодья и пр. откр. территории, мусор вне здания, трава;82.9302167747912;55.0169211985413;8;1;1;2,25;6
1613003;29.04.16 18:07;ул. Бориса-Богаткова 270.;Тушение пожара;Транспортные средства;82.9993039467453;55.0449376805952;9;2;5;5;6
1613011;29.04.16 18:57;ул. Солидарности 86.;Тушение пожара;Прочие обьекты пожара;82.9523995156332;55.1570367724344;7;3;8;;
1613044;30.04.16 0:36;ул. Селезнева 28.;Тушение пожара;Здания,сооружения и помещения предприятий торговли;82.9476143035222;55.0416862744884;4;5;60;50;10
1613073;30.04.16 10:48;ул. Петухова 53.;Тушение пожара;Многоквартирный жилой дом;82.8796905771744;54.9439096315896;4;59;24;16;44
1613086;30.04.16 11:29;ул. Федосеева 38.;Тушение пожара;Здания, помещения учебно-воспитательного назначения;82.9750407086364;55.0302159931859;7;8;22;6;21
1613290;01.05.16 5:06;ул. Станционная 60/1.;Тушение пожара;Здания производственного назначения;82.8166206696596;54.9978512830189;5;104;419;1200;61
1613303;01.05.16 8:48;мрн. Горский 86;Тушение пожара;Многоквартирный жилой дом;82.8867481527573;54.9938979458456;7;21;36;42;30
1613476;01.05.16 19:28;ул. Урманова 1.;Тушение пожара;Прочие обьекты пожара;82.958097206575;54.9681617811682;9;1;16;5;9
1613575;02.05.16 0:51;ул. Ленинградская 147/1.;Тушение пожара;Транспортные средства;82.9661951561029;55.010833642312;5;2;10;4;10
1613642;02.05.16 16:41;ул. Лебедева 10.;Тушение пожара;;83.1233049235793;54.944624810842;10;5;105;70;10
1613645;02.05.16 17:44;ул. Военная 18.;Тушение пожара;Прочие обьекты пожара;82.9461372033616;55.0283100170258;9;1;16;;
1613691;03.05.16 2:24;ул. Дружбы 5.;Тушение пожара;Транспортные средства;82.8768735985193;54.990107120509;6;1;17;5;9
1613709;03.05.16 9:11;ул. Невского 6;Тушение пожара;Многоквартирный жилой дом;82.9019433107306;55.1234082362485;6;4;10;20;13
1613746;03.05.16 13:46;ул. Тополевая 17.;Тушение пожара;Обьект не определен (неучетные пожары);82.9456897445982;55.0317558604633;8;1;11;;
1613882;04.05.16 0:16;ул. Жуковского 117;Тушение пожара;Многоквартирный жилой дом;82.8920261367997;55.0590896732986;4;7;1;5;8
1613885;04.05.16 1:21;ул. Русская 27.;Тушение пожара;Многоквартирный жилой дом;83.0469562114172;54.8466284733313;8;;;0;0
1613999;04.05.16 14:08;ул. Лейтенанта Амосова 53.;Тушение пожара;Прочие обьекты пожара;82.9638230525865;55.1571653901748;8;1;14;;
1614214;05.05.16 0:26;ул. Херсонская 4;Тушение пожара;Надворные постройки;82.8246686460587;54.9795172772857;8;1;14;21;8
1614218;05.05.16 0:42;ул. Холодильная 18/3.;Тушение пожара;Транспортные средства;82.8842032535145;55.0524870887731;9;1;15;2;7
1614232;05.05.16 2:56;ул. 9-Й Гвардейской Дивизии 4.;Тушение пожара;Транспортные средства;82.8497493162188;54.9647567361954;10;1;6;2;11
1614255;05.05.16 9:31;ул. Лермонтова 36.;Тушение пожара;Транспортные средства;82.9266880977527;55.0445556418508;5;1;9;6;8
1614324;05.05.16 13:06;Ул.Ленина 41;Тушение пожара;Многоквартирный жилой дом;83.1045424890529;54.7616106262245;7;1;2;3;9
1614379;05.05.16 15:02;ул. Районная 39.;Тушение пожара;Надворные постройки;82.8664858209998;54.9754125786145;8;3;36;25;10
1614385;05.05.16 15:08;ул. Сиреневая 31;Тушение пожара;Многоквартирный жилой дом;83.0450048744016;54.8542288415621;6;26;22;20;23
1614480;05.05.16 15:29;ул. Фрунзе 44.;Тушение пожара;Одноквартирный жилой дом;83.0698384266102;54.7573333973261;6;1;62;15;9
1614794;06.05.16 17:18;ул. Петухова 160/1;Тушение пожара;Многоквартирный жилой дом;82.9466942375352;54.9374354544817;16;6;33;20;21
1614907;06.05.16 22:35;ул. Гайдара 35.;Тушение пожара;Одноквартирный жилой дом;82.994634462571;54.9921473495075;10;17;92;91;25
1614926;06.05.16 23:51;ул. Амосова 53.;Тушение пожара;Прочие обьекты пожара;82.9060138550893;55.1193513578326;16;1;10;;
1614928;07.05.16 0:27;ул. Инская 56.;Тушение пожара;Прочие обьекты пожара;82.9370672800135;55.0098423569212;8;1;4;6;8
1614961;07.05.16 8:57;ул. Рябиновая 10/1;Тушение пожара;Многоквартирный жилой дом;83.0265242573383;55.0019540311648;7;4;15;7;15
1615179;07.05.16 21:49;ул. Солидарности 81.;Тушение пожара;Надворные постройки;82.9575253635691;55.1595760822027;9;3;4;;
1615239;08.05.16 8:13;ул. Профсоюзная 13.;Тушение пожара;Надворные постройки;82.9954671186232;55.0259712073616;7;2;65;17;8
1615285;08.05.16 14:48;ул. Бакинская 67.;Тушение пожара;;82.8448138211897;54.9787261738641;9;11;69;80;18
1615362;09.05.16 4:24;ул. Одоевского 1/11.;Тушение пожара;Многоквартирный жилой дом;83.1009423498117;54.9370847232761;10;;;3;8
1615423;09.05.16 19:32;ул. Зеленодолинская 122.;Тушение пожара;Одноквартирный жилой дом;83.0707470786006;55.0473322992599;10;4;33;25;12
1615461;10.05.16 0:48;ул. Гребенщикова 6.;Тушение пожара;Многоквартирный жилой дом;82.9397863810107;55.1088442359456;7;1;8;0;0
1615471;10.05.16 2:34;ул. Клубная 21.;Тушение пожара;Транспортные средства;82.7954174097359;55.0192207572196;7;2;9;3;7
1615475;10.05.16 3:01;ул. Димитрова 5 К2.;Тушение пожара;Прочие обьекты пожара;83.103458278543;54.8640882213112;5;8;40;15;8
1615585;10.05.16 18:28;ул. Громова 7;Тушение пожара;Многоквартирный жилой дом;82.9107251375638;54.9365644783847;8;4;15;8;9
1615748;12.05.16 15:11;ул. Гребенщикова 10.;Тушение пожара;Транспортные средства;82.9420544697864;55.1119803320468;5;1;17;5;10
1615750;12.05.16 15:36;ул. 2-Я Кустарная 12.;Тушение пожара;Одноквартирный жилой дом;82.8563480285439;54.9840849465427;10;3;72;48;10
1615800;13.05.16 1:02;ул. Штормовая 25;Тушение пожара;Одноквартирный жилой дом;83.0066827289022;54.8725794200872;7;2;114;50;8
1615801;13.05.16 1:05;ул. Комсомольская 5.;Тушение пожара;Транспортные средства;82.9670818841626;54.9545924771952;10;;;1;8
1615922;13.05.16 20:30;ул. Амосова 58.;Тушение пожара;Прочие обьекты пожара;82.9048856463803;55.1192783164359;8;2;2;;
1615984;14.05.16 3:33;ул. Декабристов 111.;Тушение пожара;Транспортные средства;82.9583679337411;55.0052439459779;10;1;4;3;4
1616295;16.05.16 2:21;ул. Лескова 158.;Тушение пожара;Транспортные средства;82.9588541183993;55.0184598271488;5;1;7;4;7
1616297;16.05.16 3:57;ул. Чехова 134.;Тушение пожара;Одноквартирный жилой дом;82.9546521235464;55.0167663574782;4;16;182;120;18
1616309;16.05.16 8:52;ул. Чулымская 1-Я 128/1.;Тушение пожара;Надворные постройки;82.8863738668609;55.0141052703653;10;1;13;0,5;11
1616366;16.05.16 17:39;Ул.Вокзальная 20;Тушение пожара;Многоквартирный жилой дом;83.1077811850969;54.7632116370656;7;1;11;4;7
1616429;16.05.16 22:06;ул. Геодезическая 17;Тушение пожара;Многоквартирный жилой дом;82.6820128124371;54.9924010195377;10;3;16;5;8
1616439;16.05.16 23:42;ул. Авиастроителей 14.;Тушение пожара;Здания,сооружения и помещения предприятий торговли;82.9769837888221;55.0733169220276;2;1;19;3;5
1616452;17.05.16 3:21;ул. Невельского 69.;Тушение пожара;Транспортные средства;82.8090092080208;54.9915778815945;8;1;10;7;7
1616621;18.05.16 10:25;ул. Новоросийская 3.;Тушение пожара;Надворные постройки;83.0007411454898;55.0513771380096;5;1;27;2;7
1616628;18.05.16 11:58;ул. Бердышева 66.;Тушение пожара;Одноквартирный жилой дом;82.9615616237914;54.8660701465915;4;5;53;0;10
1616637;18.05.16 13:16;ул. Военная 16.;Тушение пожара;Прочие обьекты пожара;82.9448114583201;55.0280420659061;10;26;415;;
1616639;18.05.16 13:56;ул. Фабричная 43.;Тушение пожара;Надворные постройки;82.907143979319;55.0215997303898;8;11;87;211;17
1616733;19.05.16 1:12;ул. Сибиряков-Гвардейцев 47/4.;Тушение пожара;Прочие обьекты пожара;82.9007260528325;54.9536879957996;6;5;96;24;9
1616749;19.05.16 6:20;ул. Серпуховская 15.;Тушение пожара;Надворные постройки;82.9089581780456;55.1169478897065;10;7;63;25;9
1616822;19.05.16 14:31;прзд. Северный 45.;Тушение пожара;Прочие административные здания;82.9042858421636;55.0701082790705;10;13;63;124;20
1616870;19.05.16 18:53;ул. Куприна 1.;Тушение пожара;Надворные постройки;82.9926190190157;55.0413511840533;8;11;66;145;15
1616988;20.05.16 14:33;ул. Телевизионная 44.;Тушение пожара;Одноквартирный жилой дом;82.8898793460239;54.9709552540377;10;10;168;54;12
1617022;20.05.16 16:27;пл. Широкая 1.;Тушение пожара;Транспортные средства;82.8921436570543;55.0315861658635;2;0;3;3;5
1617036;20.05.16 16:56;ул. Твардовского 22;Тушение пожара;Многоквартирный жилой дом;83.125597159135;54.9337661374695;10;;;0;12
1617061;20.05.16 17:59;ул. Одоевского 3.;Тушение пожара;Прочие обьекты пожара;83.1145759456058;54.939233378226;10;1;48;5;3
1617109;20.05.16 21:39;ул. Пермитина 18;Тушение пожара;Многоквартирный жилой дом;82.8906336896301;54.9918514158968;7;3;6;2;12
1617266;21.05.16 16:07;ул. Зорге 219.;Тушение пожара;Надворные постройки;82.9177209128221;54.92985423263;10;4;52;10;8
1617372;22.05.16 7:40;ул. Амурская 28.;Тушение пожара;;82.8544781020839;54.980006475369;5;4;81;262;15
1617485;22.05.16 16:55;ул. Первомайская 39.;Тушение пожара;Прочие обьекты пожара;83.0830455882697;54.9715472579243;10;1;79;12;7
1617492;22.05.16 17:33;пос. Аэропорт 2/3.;Тушение пожара;Транспортные средства;82.9210925936708;55.0888415305611;1;1;14;0;0
1617623;23.05.16 10:35;ул. Твардовского 22.;Тушение пожара;Многоквартирный жилой дом;83.125597159135;54.9337661374695;10;;;0;0
1617624;23.05.16 10:36;ул. Солидарности 86.;Тушение пожара;Прочие обьекты пожара;82.9523995156332;55.1570367724344;5;1;6;;
1617627;23.05.16 10:30;Ул. Мичурина 22.;Тушение пожара;Надворные постройки;82.9213954958681;55.0481549165894;;;;0;0
1617687;23.05.16 15:26;ул. Танкистов 3;Тушение пожара;Многоквартирный жилой дом;82.8307440961556;54.98150812584;7;5;35;24;11
1617797;23.05.16 21:24;ул. Салтыкова-Щедрина 1.;Тушение пожара;Многоквартирный жилой дом;82.907664349821;55.030298243996;3;7;13;16;19
1617888;24.05.16 14:43;ул. Амосова 77.;Тушение пожара;Прочие обьекты пожара;82.9024460391877;55.1199231273645;6;2;15;;
1618005;25.05.16 0:01;ул. Выставочная 41/5.;Тушение пожара;Здания,сооружения и помещения предприятий торговли;82.8951260170941;54.9955134500168;7;3;3;1;8
1618022;25.05.16 4:56;ул. Профсоюзная 17;Тушение пожара;;82.9958558302167;55.0259347208339;7;13;83;116;16
1618152;26.05.16 0:59;ул. Калинина 30.;Тушение пожара;Транспортные средства;82.7079324329167;54.9889806353006;2;0;3;1;4
1618174;26.05.16 10:28;ул. Гурьевская 68/1.;Тушение пожара;Здания,сооружения и помещения предприятий торговли;82.951957988032;55.013932497452;3;3;11;3;7
1618579;28.05.16 23:34;ул. Дуси Ковальчук 238.;Тушение пожара;Транспортные средства;82.8988430484632;55.0529330487393;4;1;3;0,5;6
1618590;29.05.16 1:26;ул. Физкультурная 32.;Тушение пожара;Надворные постройки;83.0909309207948;54.9799488147066;6;1;39;15;7
1618591;29.05.16 1:44;"с/о. ""Гагарина"",Ул.Бородина 58.";Тушение пожара;Садовый дом, дача;82.8771251574137;54.9364935195723;10;1;60;20;9
1618612;29.05.16 8:54;ул. Золотодолинская 101.;Тушение пожара;Прочие обьекты пожара;83.1045222086086;54.820589932712;16;1;67;130;17
1618651;29.05.16 14:49;ул. Надсона 16.;Тушение пожара;Одноквартирный жилой дом;83.1044895987033;54.9408964309464;9;5;211;135;16
1618749;30.05.16 12:07;ул. Строительная 1;Тушение пожара;Многоквартирный жилой дом;82.7103216809738;54.9916065505685;5;7;12;4;5
1618777;30.05.16 15:20;ул. Новоуральская 15/4.;Тушение пожара;Надворные постройки;82.9601352903961;55.173224027881;6;2;41;22;7
1618785;30.05.16 16:59;ул. Механическая 1-Я 1.;Тушение пожара;Надворные постройки;83.0519209848963;54.9643160170432;4;3;13;10;7
1618801;30.05.16 18:55;ул. Озерная 37.;Тушение пожара;Одноквартирный жилой дом;82.8529541572995;54.9859682905633;4;4;27;20;8
1618828;31.05.16 0:05;Вокзальная 10.;Тушение пожара;Транспортные средства;83.1063123311978;54.7649975275521;4;1;53;5;6
1618905;01.06.16 6:34;ул. 2-Я Станционная 38.;Тушение пожара;Прочие обьекты пожара;82.8452497160278;54.9974959129367;5;1;46;20;8
1618913;01.06.16 10:17;ул. Фабричная 55/3.;Тушение пожара;Транспортные средства;82.8984345885064;55.0238459824361;8;3;11;7;9
1618930;01.06.16 12:38;ул. Вяземская 15;Тушение пожара;Многоквартирный жилой дом;83.0999007458139;54.8681478681781;2;4;5;6;13
1618998;04.05.16 21:16;ул. Демакова 6;Тушение пожара;Многоквартирный жилой дом;83.100764960214;54.8625869159458;;;;0;0
1619062;02.06.16 14:27;ул. Сакко И Ванцетти 108.;Тушение пожара;Прочие обьекты пожара;82.9519424775344;55.0231828405652;5;8;34;5;10
1619064;02.06.16 14:46;ул. Гоголя 19.;Тушение пожара;Прочие обьекты пожара;82.9271014523952;55.0433390292175;6;1;6;1;4
1619106;02.06.16 20:00;ул. Чаплыгина 28.;Тушение пожара;Прочие обьекты пожара;82.9148335395877;55.0251799821336;4;1;17;15;8
1619127;02.06.16 23:07;ул. Лазарева 3.;Тушение пожара;Транспортные средства;82.9692657851319;55.0665739005521;6;;;0,1;5
1619128;02.06.16 23:20;ул. Байдукова 171.;Тушение пожара;Надворные постройки;82.7048559975412;54.9827757498467;4;9;78;30;5
1619250;03.06.16 22:35;ул. Твардовского 18;Тушение пожара;Многоквартирный жилой дом;83.1247250224834;54.9382066648702;13;6;39;8;29
1619341;04.06.16 15:52;ул. Пермитина 24/1.;Тушение пожара;Транспортные средства;82.8922042676817;54.9905059182448;8;1;21;10;8
1619475;05.06.16 1:55;ул. Бурденко 2-Я 5.;Тушение пожара;Надворные постройки;82.9197745222826;54.9678316096479;8;6;24;13;9
1619554;05.06.16 10:24;Попова 11 КОР 3.;Тушение пожара;Здания производственного назначения;83.0785250846567;54.7705690427629;4;2;34;10;9
1619636;05.06.16 21:37;мрн. Горский 78;Тушение пожара;Многоквартирный жилой дом;82.8911155201725;54.9934674457501;5;;;;12
1619666;06.06.16 1:33;ул. Лениногорская 61.;Тушение пожара;Одноквартирный жилой дом;83.1125691130247;54.9525008165423;10;4;106;64;12
1619791;06.06.16 18:29;ул. Жко Аэропорта 8/1.;Тушение пожара;Прочие обьекты пожара;82.6896079426162;54.9968720484099;4;18;29;50;11
1619842;07.06.16 1:05;ул. Выборная 41.;Тушение пожара;Надворные постройки;82.9886574915141;54.9924716472672;10;8;57;28;11
1619905;07.06.16 12:27;ул. Складская 2-Я 2.;Тушение пожара;Транспортные средства;83.0561238534623;54.9709512807263;6;1;13;3;4
1619974;07.06.16 19:57;ул. Свободы 346.;Тушение пожара;Надворные постройки;82.9440941547026;55.0592246383093;10;1;33;12;8
1620015;08.06.16 4:23;с/о. Конструктор 187.;Тушение пожара;Надворные постройки;82.9745791380201;55.0138528875562;23;1;63;16;8
1620046;08.06.16 13:44;ул. Серафимовича 2/1.;Тушение пожара;Транспортные средства;82.8781740535477;54.9845596397684;10;;;0;0
1620113;08.06.16 19:54;"с/о. ""Полянка"" 5.";Тушение пожара;Надворные постройки;82.859589407055;55.0270933051483;10;4;38;12;8
1620127;08.06.16 22:37;ул. Тельмана 3.;Тушение пожара;Многоквартирный жилой дом;83.092657362116;54.9731534698869;2;16;138;122;10
1620144;09.06.16 2:47;ул. Немировича-Данченко 91.;Тушение пожара;Здания, помещения сервисного обслуживания населения;82.8851151864511;54.9721791524166;8;1;2;0,3;8
1620270;09.06.16 16:56;ул. Приморская 23.;Тушение пожара;Надворные постройки;82.987220797436;54.8588580003661;3;4;63;60;5
1620293;09.06.16 19:14;ул. Флотская 28.;Тушение пожара;Надворные постройки;82.9942408892712;55.1680595198601;10;7;74;108;12
1620355;10.06.16 2:13;ул. Зорге 205.;Тушение пожара;Транспортные средства;82.9174005939151;54.9311689624765;11;1;8;6;6
1620473;10.06.16 16:10;ул. Новосибирская 12;Тушение пожара;Многоквартирный жилой дом;82.8430497843882;54.9895536602865;3;5;6;3,5;8
1620477;10.06.16 16:35;ул. Флотская 28.;Тушение пожара;Надворные постройки;82.9942408892712;55.1680595198601;10;14;167;84;9
1620490;10.06.16 17:50;ул. Светлая 142.;Тушение пожара;Надворные постройки;82.9464575293024;55.0655346319844;9;4;26;6;8
1620511;10.06.16 19:54;ул. Нижегородская 27.;Тушение пожара;Надворные постройки;82.9513795085484;55.011661026126;7;2;24;12;9
1620577;11.06.16 8:45;"с/о. ""Майское"" 18.";Тушение пожара;Надворные постройки;82.8839250523971;55.0335864351131;25;2;23;24;7
1620607;11.06.16 11:33;ул. Флотская 28.;Тушение пожара;Прочие обьекты пожара;82.9942408892712;55.1680595198601;11;36;30;;
1620718;11.06.16 18:48;ул. Плахотного 9;Тушение пожара;Многоквартирный жилой дом;82.8825499201795;54.9861435410815;8;9;27;10;11
1620800;11.06.16 23:38;ул. Ольховская 10.;Тушение пожара;Одноквартирный жилой дом;82.9047098329794;54.9672130562181;4;1;17;6;6
1620824;12.06.16 4:55;ул. Громова 18.;Тушение пожара;Прочие обьекты пожара;82.9077738641879;54.9342202483964;8;1;12;13;8
1620833;12.06.16 8:38;ул. Новоуральская 27/1.;Тушение пожара;Прочие обьекты пожара;82.9560320367065;55.1759733894998;4;1;9;;
1620846;12.06.16 10:41;ул. Гаранина 21.;Тушение пожара;Транспортные средства;82.9688584358215;55.0279845593954;7;1;1;3;10
1620922;12.06.16 14:26;ул. Державина 59.;Тушение пожара;Надворные постройки;82.9401893461885;55.0408648097635;5;0;33;18;8
1621027;12.06.16 18:03;ул. Саввы Кожевникова 39.;Тушение пожара;Надворные постройки;82.9569444938358;54.9701724971263;10;3;34;5;8
1621129;13.06.16 4:22;ул. Виктора Уса 7;Тушение пожара;Многоквартирный жилой дом;82.8835065345545;54.9383190654945;8;2;2;1,5;10
1621188;13.06.16 12:18;ул. Ленинградская 273.;Тушение пожара;Транспортные средства;82.9775078658743;55.0054209061931;6;1;21;1;6
1621536;14.06.16 8:31;ул. Котовского 15;Тушение пожара;Многоквартирный жилой дом;82.8765741199813;54.9918291842275;9;11;9;4;17
1621544;14.06.16 9:31;ул. Большая 310 А.;Тушение пожара;Прочие обьекты пожара;82.8565572027614;55.0085643598698;10;2;97;0;0
1621655;14.06.16 15:18;ул. Кирова 319.;Тушение пожара;Надворные постройки;82.9761764362785;55.0037098813746;18;7;135;114;9
1621658;14.06.16 15:30;ул. Кошурникова 10.;Тушение пожара;Транспортные средства;82.9524647454073;55.0423979795263;7;1;1;0,3;8
1621847;14.06.16 23:05;ул. Станционная 51.;Тушение пожара;Надворные постройки;82.8335405093027;54.9954682333972;6;3;27;24;6
1621854;15.06.16 0:51;ул. Планировочная 12;Тушение пожара;Многоквартирный жилой дом;82.8850450727541;54.9938446296947;7;10;26;27;11
1621857;15.06.16 1:02;ул. Дегтярева 23.;Тушение пожара;Прочие обьекты пожара;83.0404842994702;55.0431218223912;10;9;176;40;12
1621858;15.06.16 1:19;ул. Вертковская 14/2.;Тушение пожара;Транспортные средства;82.8888876167249;54.9776635814475;10;1;2;1,5;4
1621867;15.06.16 2:12;ул. Станкевича 48.;Тушение пожара;Одноквартирный жилой дом;82.8970642922005;55.1144055850946;14;4;62;100;8
1621919;15.06.16 14:02;ул. Турухановская 95/1.;Тушение пожара;Прочие обьекты пожара;82.9622464497286;55.1616057860909;6;1;67;;
1621998;15.06.16 20:54;ул. Сибиряков-Гвардейцев 54.;Тушение пожара;Здания производственного назначения;82.8944429166752;54.9523301751993;2;4;15;5;15
1622012;15.06.16 23:16;ул. Тюленина 20.;Тушение пожара;Транспортные средства;82.9424505853637;55.1099459544571;7;1;10;0,5;5
1622038;16.06.16 9:31;ул. Северная 33.;Тушение пожара;Здания, помещения учебно-воспитательного назначения;82.8969540505529;55.0663455834327;6;4;57;4;16
1622054;16.06.16 13:47;ул. Мясниковой 3.;Тушение пожара;Надворные постройки;82.9565320984037;55.1029720587339;4;5;54;35;8
1622082;16.06.16 17:39;ул. Спортивная 6;Тушение пожара;Многоквартирный жилой дом;82.8074376101652;54.9859349652663;4;;;;
1622108;16.06.16 22:31;ул. Рубиновая 4.;Тушение пожара;Транспортные средства;83.0849619956411;54.8683636045202;4;1;23;3;6
1622129;17.06.16 0:40;ул. Владимировская 4;Тушение пожара;Многоквартирный жилой дом;82.8925006081321;55.0326023766734;7;61;1;0;0
1622226;17.06.16 15:01;ул. Богдана Хмельницкого 125.;Тушение пожара;Прочие обьекты пожара;82.9866051489843;55.1114377583033;5;3;16;6;11
1622238;17.06.16 15:26;ул. Саввы Кожевникова 29/1.;Тушение пожара;Прочие обьекты пожара;82.9604761216696;54.9681380051014;10;3;43;30;9
1622275;17.06.16 19:22;ул. Гоголя 27 А;Тушение пожара;Многоквартирный жилой дом;82.9327496141789;55.043837820273;6;3;107;30;22
1622329;18.06.16 8:21;ул. Ломоносова 59;Тушение пожара;Многоквартирный жилой дом;82.9396213450769;55.0397960978627;5;;;;12
1622525;19.06.16 17:45;ул. Покатная 130/1.;Тушение пожара;Прочие обьекты пожара;82.9511017096006;55.0260869217903;6;1;20;6;7
1622569;20.06.16 3:33;ул. Седова 80.;Тушение пожара;Надворные постройки;82.9998205722184;55.0650243349946;8;1;74;15;12
1622582;19.06.16 22:38;ул. Амосова 58;Тушение пожара;Многоквартирный жилой дом;82.9048856463803;55.1192783164359;8;5;51;;
1622663;20.06.16 23:58;ул. Широкая 117;Тушение пожара;Многоквартирный жилой дом;82.8478312050051;54.9923413671734;6;2;7;5;13
1622685;21.06.16 3:26;ул. Титова 15.;Тушение пожара;Прочие обьекты пожара;82.8796234724048;54.9820735187494;7;1;11;5;13
1622703;21.06.16 11:53;ул. Объединения 39;Тушение пожара;Многоквартирный жилой дом;82.9747446499056;55.0994881435584;3;7;4;6;22
1622796;22.06.16 3:11;ул. Селезнева 32.;Тушение пожара;Транспортные средства;82.9463276191398;55.0426525918072;7;1;12;4;6
1622808;22.06.16 9:22;ул. Пионерская 38.;Тушение пожара;Одноквартирный жилой дом;82.9780399798695;54.9548637113227;8;10;81;54;14
1622903;23.06.16 8:56;ул. Новоуральская 27;Тушение пожара;Многоквартирный жилой дом;82.9571732992132;55.1782322667517;3;2;9;2;10
1622946;23.06.16 13:02;ул. Громова 2;Тушение пожара;Многоквартирный жилой дом;82.9088297070385;54.9396167278677;6;6;7;1;12
1622993;23.06.16 19:00;ул. Строительная 1;Тушение пожара;Многоквартирный жилой дом;82.7103216809738;54.9916065505685;3;10;32;8;12
1623140;25.06.16 0:05;ул. Халтурина 22.;Тушение пожара;Транспортные средства;82.8225892897668;54.9885710602286;8;1;7;5;7
1623196;25.06.16 13:36;ул. Большевистская 270.;Тушение пожара;Сооружения, установки промышленного назначения;82.9946833741479;54.9853597540226;10;9;38;10;7
1623273;26.06.16 6:20;ул. Советская Сибирь 68.;Тушение пожара;Одноквартирный жилой дом;82.9602400604079;55.0696747818785;9;6;55;26;16
1623288;26.06.16 11:10;шс. Старое 11.;Тушение пожара;Одноквартирный жилой дом;82.910253607438;55.1200357124015;10;4;4;2;9
1623441;28.06.16 1:24;ул. Кирова 319.;Тушение пожара;Транспортные средства;82.9761764362785;55.0037098813746;7;1;12;3;11
1623449;28.06.16 5:34;ул. Кропоткина 449.;Тушение пожара;Транспортные средства;82.9520606100505;55.0598167294745;10;1;16;4;16
1623524;28.06.16 22:11;ул. Новоселов 14;Тушение пожара;Многоквартирный жилой дом;83.0626784211603;54.9621905737719;8;5;24;12;11
1623549;29.06.16 8:06;ул. Бориса Богаткова 137.;Тушение пожара;;82.9610221468792;55.0249327993816;4;15;59;170;18
1623627;29.06.16 23:12;ул. Ленинградская 101/2.;Тушение пожара;Транспортные средства;82.9555437512985;55.0146075362154;5;1;4;2;7
1623641;30.06.16 1:52;ул. Пархоменко 80.;Тушение пожара;Транспортные средства;82.8535197411288;54.9882558474961;6;1;7;4;10
1623693;30.06.16 15:47;ул. Сухарная 2-Я 105.;Тушение пожара;Одноквартирный жилой дом;82.8679304083929;55.0425176696366;5;8;9;0,5;9
1623699;30.06.16 16:39;ул. Портовая 1-Я 15.;Тушение пожара;Надворные постройки;82.8545299774;55.026223369256;9;2;6;3;12
1623708;30.06.16 19:22;ул. Томьусинская 37.;Тушение пожара;Надворные постройки;82.8477697547643;55.0287998011516;10;3;70;50;16
1623817;01.07.16 23:29;ул. Есенина 10;Тушение пожара;Многоквартирный жилой дом;82.9880059373842;55.0493483019544;8;7;60;0;9
1623827;02.07.16 5:04;ул. Никитина 162.;Тушение пожара;Прочие обьекты пожара;82.9915055973251;55.0308932702142;8;6;25;10;14
1623913;03.07.16 8:24;ул. Сургутская 26.;Тушение пожара;Транспортные средства;82.8841135817312;55.0396101718806;6;;;0;8
1623946;03.07.16 19:00;ул. Куйбышева 2-Я 13.;Тушение пожара;;82.8549707520682;54.975361751454;7;1;24;1;11
1623987;18.05.16 8:00;ул. Авиастроителей 6.;Тушение пожара;Транспортные средства;82.971237799821;55.0715277987931;;;;0;0
1624049;04.07.16 21:23;ул. Садовая 1.;Тушение пожара;Надворные постройки;82.703786627012;54.9898683568853;3;14;101;60;9
1624064;05.07.16 2:11;ул. Портовая 1-Я 79.;Тушение пожара;Одноквартирный жилой дом;82.8434043262225;55.0279238054662;9;13;147;120;15
1624068;05.07.16 3:40;ул. Никитина 174.;Тушение пожара;Транспортные средства;82.9947638837968;55.0324913063454;5;1;10;1,5;9
1624095;05.07.16 15:32;ул. Академическая 17;Тушение пожара;Многоквартирный жилой дом;83.1121952788126;54.8365502128936;7;6;29;1;17
1624124;06.07.16 2:50;с/о. Рассвет 10.;Тушение пожара;Садовый дом, дача;82.9759735040429;55.1096132711456;10;2;34;12;8
1624125;06.07.16 2:27;ул. Зорге 63.;Тушение пожара;Транспортные средства;82.9071398813877;54.9377576208846;8;1;16;2;6
1624126;06.07.16 2:31;ул. Менделеева 18.;Тушение пожара;Прочие обьекты пожара;82.9662810658784;55.0747189309912;8;12;546;0;0
1624127;06.07.16 1:18;ул. Герцена 100.;Тушение пожара;Надворные постройки;83.1002349192334;54.7462686190805;6;1;68;10;6
1624216;06.07.16 18:55;ул. Ковальчук 185/1.;Тушение пожара;Многоквартирный жилой дом;82.9204984912977;55.0643511990385;5;1;2;0,5;8
1624245;07.07.16 2:11;ул. Шорная 30.;Тушение пожара;Транспортные средства;82.8801313006601;55.0437920495294;4;1;6;4;7
1624261;07.07.16 4:20;ул. Федосеева 1.;Тушение пожара;Здания,сооружения и помещения предприятий торговли;82.9695324700268;55.0393002096058;7;2;5;2;9
1624266;07.07.16 5:37;ул. Красноармейская 139.;Тушение пожара;Надворные постройки;82.9728497384258;55.0165228543681;4;2;19;7;9
1624347;08.07.16 11:15;пр-т. Дуси Ковальчук 179/4.;Тушение пожара;Прочие административные здания;82.9141072541217;55.0605866409929;6;1;7;15;8
1624460;09.07.16 21:09;ул. Станционная 24.;Тушение пожара;Надворные постройки;82.8597303901856;54.9976986103873;7;8;43;1;13
1624664;12.07.16 1:25;ул. Каменская 51/1.;Тушение пожара;Транспортные средства;82.9232356130513;55.0461157560952;8;1;37;13;13
1624804;13.07.16 14:10;ул. 30 Лет Октября 25.;Тушение пожара;Транспортные средства;82.9551511483109;55.077857064062;6;1;6;2;7
1624966;15.07.16 2:49;ул. Социалистическая 20.;Тушение пожара;Одноквартирный жилой дом;82.9324349923593;54.9808581660714;10;3;256;100;7
1625120;17.07.16 13:20;Химзаводская 11/90.;Тушение пожара;Прочие административные здания;83.1356221927387;54.7358732713079;2;1;75;2;6
1625134;17.07.16 17:30;ул. Дачное Шоссе 2/8.;Тушение пожара;Надворные постройки;82.8109605637036;55.0723273416302;4;2;185;160;18
1625136;17.07.16 18:00;ул. Софийская 22.;Тушение пожара;Одноквартирный жилой дом;82.9385667203213;54.8406936063789;7;;;;
1625168;18.07.16 1:16;ул. Виктора Уса 11/1.;Тушение пожара;Многоквартирный жилой дом;82.885797803379;54.9383247007748;7;2;13;116;23
1625190;18.07.16 12:10;ул. Первомайская 128.;Тушение пожара;Здания производственного назначения;83.106775815911;54.9699943883329;8;1;20;10;8
1625209;18.07.16 15:54;ул. Фурманова 36.;Тушение пожара;;83.0150673208663;55.0548210248496;3;4;36;6;8
1625225;18.07.16 20:12;Лесное Шоссе 9.;Тушение пожара;Отдельно стоящая хозяйственная постройка;82.8183672012686;55.114743101478;10;7;10;2;27
1625334;20.07.16 10:56;ул. Первомайская 128.;Тушение пожара;Транспортные средства;83.106775815911;54.9699943883329;5;1;4;4;7
1625363;20.07.16 18:57;ул. Блюхера 46.;Тушение пожара;Транспортные средства;82.9060598228147;54.9926599931821;7;1;4;2;12
1625555;23.07.16 14:36;ул. Солидарности 72.;Тушение пожара;Прочие обьекты пожара;82.9562683283444;55.1546304824102;5;1;5;;
1625598;24.07.16 0:56;ул. Объединения 39/1;Тушение пожара;Многоквартирный жилой дом;82.9751075703496;55.1000866190457;8;5;33;16;25
1625606;24.07.16 5:03;пер. Порт-Артурский 6-Й 1.;Тушение пожара;Транспортные средства;82.8026313195824;54.9899529137571;5;1;9;6;7
1625636;24.07.16 14:58;ул. Кропоткина 461.;Тушение пожара;;82.9536833317757;55.0600635746274;10;3;16;50;8
1625700;25.07.16 6:55;ул. Станционная 2-Я 38.;Тушение пожара;Складские здания;82.8033830122727;55.0140392442618;7;52;420;2000;76
1625789;26.07.16 1:23;ул. Газонная 4.;Тушение пожара;Прочие обьекты пожара;83.114900561786;54.9496498137992;10;;;0;0
1625832;27.07.16 3:00;ул. Гоголя 180.;Тушение пожара;Транспортные средства;82.9544820397515;55.0444359281281;6;1;19;3;8
1625914;28.07.16 4:19;ул. Титова 198;Тушение пожара;Многоквартирный жилой дом;82.8292481611553;54.9805630781457;8;5;8;5;14
1626039;29.07.16 17:45;ул. Красных Зорь 5.;Тушение пожара;Транспортные средства;82.9714682732903;55.1120650656;10;1;5;5;10
1626071;30.07.16 0:38;ул. Путейцев 9.;Тушение пожара;Надворные постройки;82.6738848456285;54.9966303428296;9;7;152;60;6
1626076;30.07.16 2:32;пер. Костычева 68.;Тушение пожара;Надворные постройки;82.8773386573152;54.9720934636166;7;2;79;73;13
1626159;31.07.16 2:13;Ул.Пугачева 5.;Тушение пожара;Надворные постройки;83.0994729669428;54.7544753823666;8;1;76;80;13
1626262;01.08.16 8:59;ул. Добролюбова 2.;Тушение пожара;Здания,сооружения и помещения предприятий торговли;82.9436502247226;55.0027121008911;6;2;19;2;8
1626372;02.08.16 13:26;ул. Аникина Михаила 27/1.;Тушение пожара;Транспортные средства;82.9482498624032;54.9641266948448;9;1;11;5;11
1626392;02.08.16 16:54;ул. Беловежская 10;Тушение пожара;Многоквартирный жилой дом;82.8936446449104;54.9645508625116;3;3;14;8;11
1626449;03.08.16 14:40;ул. Станционная 2-Я 30.;Тушение пожара;Здания производственного назначения;82.8084548187;55.0120023404697;8;;;0;0
1626714;06.08.16 11:07;ул. Комсомольская 1.;Тушение пожара;Транспортные средства;82.9683445975971;54.9548668530022;10;1;20;11;11
1626744;06.08.16 16:28;пер. Вокзальный 51.;Тушение пожара;Прочие обьекты пожара;82.7282023555395;54.9883236384459;2;1;2;0,5;3
1626834;07.08.16 12:44;ул. Степная 63;Тушение пожара;Многоквартирный жилой дом;82.8634129366286;54.9768151107185;6;2;6;10;15
1626855;07.08.16 15:57;ул. Колхидская 10.;Тушение пожара;Здания, помещения здравоохранения и социального обслуживания населения;82.8167355510208;54.9826937696136;4;8;71;7;32
1626963;09.08.16 1:16;ул. Макаренко 9.;Тушение пожара;Транспортные средства;82.9574222114651;55.0985636630675;5;1;13;5;12
1626968;09.08.16 2:46;ул. Солидарности 83.;Тушение пожара;Транспортные средства;82.9533274240744;55.1542793954159;9;5;20;2;9
1626973;09.08.16 3:37;ул. Приморская 23.;Тушение пожара;Транспортные средства;82.987220797436;54.8588580003661;4;1;10;1;5
1626976;09.08.16 6:02;ул. Ударная 1/1;Тушение пожара;Многоквартирный жилой дом;82.8680770768946;54.9652471470076;10;8;10;4;15
1627107;10.08.16 19:02;ул. Крамского 6.;Тушение пожара;Надворные постройки;82.9809384874047;55.0242639312228;6;1;10;2;4
1627347;13.08.16 3:50;ул. Седова 126.;Тушение пожара;Транспортные средства;83.0041365533223;55.0684464420972;10;2;9;5;8
1627398;13.08.16 16:25;Карла Маркса 5.;Тушение пожара;Многоквартирный жилой дом;83.0870006648878;54.7638406493348;9;3;87;10;8
1627470;14.08.16 5:43;ул. Первомайская 204.;Тушение пожара;Многоквартирный жилой дом;83.0640260409126;54.9753934017356;8;1;12;2;11
1627557;14.08.16 20:37;ул. Белинского 72.;Тушение пожара;Надворные постройки;83.0937378312924;54.7582257115324;8;1;72;15;6
1627569;14.08.16 23:15;ул. Зыряновская 32.;Тушение пожара;Здания,сооружения и помещения предприятий торговли;82.9393898810858;55.0100231330288;5;1;19;6;7
1627583;15.08.16 3:30;ул. Ватутина 4.;Тушение пожара;Транспортные средства;82.8815575055915;54.9910729592641;7;1;9;4;9
1627638;15.08.16 21:15;ул. Ленинградская 216.;Тушение пожара;Одноквартирный жилой дом;82.9678771288497;55.0088036892349;4;4;16;6;10
1627658;16.08.16 1:36;ул. Калинина 30.;Тушение пожара;Транспортные средства;82.7079324329167;54.9889806353006;4;1;11;1;3
1627673;16.08.16 2:59;ул. Новая Заря 9.;Тушение пожара;Транспортные средства;82.9786286121662;55.0764753326681;9;3;10;1;4
1627674;16.08.16 3:00;ул. Тульская 501.;Тушение пожара;Транспортные средства;82.8402263089774;54.9514826144797;4;1;9;4;6
1627750;16.08.16 17:59;ул. Сибиряков-Гвардейцев 45.;Тушение пожара;Здания производственного назначения;82.9022449826102;54.9627208047972;3;4;20;12;13
1627809;17.08.16 3:15;ул. Жуковского 4.;Тушение пожара;Одноквартирный жилой дом;82.7107639686867;54.9944075794875;10;5;26;15;8
1627938;18.08.16 14:22;ул. Троллейная 138;Тушение пожара;Многоквартирный жилой дом;82.8471491684279;54.9631930669445;9;10;13;4;20
1627944;18.08.16 15:31;ул. Халтурина 4;Тушение пожара;Многоквартирный жилой дом;82.82276626228;54.9921371783741;6;12;30;20;23
1627946;18.08.16 15:42;ул. Ударная 25;Тушение пожара;Многоквартирный жилой дом;82.8635705854663;54.966582908102;7;6;31;32;15
1627955;18.08.16 18:14;ул. Терешковой 6.;Тушение пожара;Транспортные средства;83.0990728081885;54.841133074991;6;1;12;4;6
1628127;20.08.16 4:27;ул. Кирова 319.;Тушение пожара;Прочие обьекты пожара;82.9761764362785;55.0037098813746;4;2;85;30;8
1628213;20.08.16 21:43;ул. Ульяновой Марии 1.;Тушение пожара;Прочие обьекты пожара;82.9738689986039;54.995069108715;6;3;14;10;7
1628270;21.08.16 13:32;ул. Зорге 13.;Тушение пожара;Транспортные средства;82.9003902151868;54.9386666250269;5;1;8;4;9
1628290;21.08.16 18:01;ул. Киевская 2;Тушение пожара;Многоквартирный жилой дом;82.8523182484457;54.9905712266732;5;3;12;10;15
1628309;21.08.16 21:02;ул. Учительская 8;Тушение пожара;Многоквартирный жилой дом;82.9758960881001;55.0743027839786;4;6;7;2;12
1628429;23.08.16 2:37;ул. Войкова 54.;Тушение пожара;Прочие обьекты пожара;82.9481547056918;55.0508539714838;4;6;41;15;21
1628440;23.08.16 7:17;ул. Береговая 40 А.;Тушение пожара;Надворные постройки;82.7292575001794;54.9875622007545;3;;;0;5
1628479;23.08.16 15:54;ул. Титова 1.;Тушение пожара;Многоквартирный жилой дом;82.8894945540795;54.9820148268971;8;;15;2;15
1628532;24.08.16 2:15;мрн. Зеленый Бор 9.;Тушение пожара;Транспортные средства;83.0078052907147;55.0021001712349;8;2;2;1,5;5
1628533;24.08.16 3:56;ул. Богдана Хмельницкого 29.;Тушение пожара;Транспортные средства;82.9476802091269;55.07289466865;9;4;10;4;10
1628717;25.08.16 17:20;ул. Державина 30.;Тушение пожара;Прочие обьекты пожара;82.9289259103525;55.0391414409787;4;10;19;6;11
1628760;26.08.16 2:15;ул. Ватутина 27;Тушение пожара;Многоквартирный жилой дом;82.8964645131995;54.983610565431;9;4;3;15;12
1628880;27.08.16 1:57;ул. Солидарности 86.;Тушение пожара;Прочие обьекты пожара;82.9523995156332;55.1570367724344;10;2;31;;
1629005;28.08.16 2:00;ул. Чапаева 7/2.;Тушение пожара;Транспортные средства;83.0718106589438;54.977303268443;5;;;0;8
1629019;28.08.16 3:10;ул. Пермитина 18;Тушение пожара;Многоквартирный жилой дом;82.8906336896301;54.9918514158968;6;3;5;5;15
1629032;28.08.16 8:04;ул. Далидовича 275.;Тушение пожара;Одноквартирный жилой дом;82.9809109022874;55.0119946337806;6;7;76;110;16
1629040;28.08.16 9:41;ул. Караваева 25.;Тушение пожара;Одноквартирный жилой дом;83.0100611344887;55.0490177638057;6;4;83;121;16
1629121;29.08.16 1:18;ул. Лейтенанта Амосова 53.;Тушение пожара;Прочие обьекты пожара;82.9638230525865;55.1571653901748;9;2;5;;
1629126;29.08.16 3:19;Новороссийская 156.;Тушение пожара;Одноквартирный жилой дом;83.0175343937522;55.040892300184;7;6;90;18;12
1629182;29.08.16 18:04;ул. Дениса Давыдова 2Б;Тушение пожара;Многоквартирный жилой дом;82.9648962906584;55.0710347627893;6;4;8;7;12
1629209;30.08.16 10:41;ул. Зорге 70;Тушение пожара;Многоквартирный жилой дом;82.9039570902699;54.931608270657;9;3;11;4;15
1629280;31.08.16 3:46;ул. Громова 14.;Тушение пожара;Здания,сооружения и помещения предприятий торговли;82.9081114521412;54.9366944358642;8;9;56;35;34
1629402;31.08.16 18:00;ул. Гурьевская 45;Тушение пожара;Многоквартирный жилой дом;82.9479157666545;55.0114247834174;6;3;76;7;10
1629489;01.09.16 3:03;ул. Объединения 92.;Тушение пожара;Транспортные средства;82.9676578002098;55.0973602301171;6;2;12;3;11
1629563;01.09.16 23:53;ул. Железнодорожная 8;Тушение пожара;Многоквартирный жилой дом;82.8975329824669;55.0438715138265;5;4;8;5;11
1629689;03.09.16 5:00;ул. Арсенальная 1.;Тушение пожара;Прочие обьекты пожара;82.7032946224204;55.0058503991951;9;1;39;;
1629771;03.09.16 19:09;ул. Выборная 99/4;Тушение пожара;Многоквартирный жилой дом;83.0131383762722;55.004229075078;10;;;0;0
1629809;04.09.16 1:12;ул. Тянь-Шаньская 16.;Тушение пожара;Надворные постройки;82.9062586456232;55.1145942417227;10;6;82;32;9
1629820;04.09.16 4:07;ул. Ветлужская 16.;Тушение пожара;Многоквартирный жилой дом;82.972815552266;54.8541005759877;9;;;0;0
1629909;04.09.16 15:53;ул. Флотская 19.;Тушение пожара;Прочие обьекты пожара;82.9964486612357;55.1710428291179;9;1;23;;
1629922;04.09.16 16:32;ул. Петухова 82;Тушение пожара;Многоквартирный жилой дом;82.9147618745752;54.9396002631201;6;;;0,3;7
1630006;04.09.16 22:44;ул. Дачная 23/5;Тушение пожара;Многоквартирный жилой дом;82.9039189849783;55.0615160680629;4;;;;10
1630054;05.09.16 2:47;Ул. Кольцова 46;Тушение пожара;;83.0611518210174;54.7586768731306;10;8;83;20;9
1630058;05.09.16 7:44;ул. Зорге 83;Тушение пожара;Многоквартирный жилой дом;82.9134181367182;54.9362476990241;8;5;6;3;11
1630151;05.09.16 19:48;ул. Бориса Богаткова 165;Тушение пожара;Многоквартирный жилой дом;82.971857360877;55.0339434372443;8;;;0;0
1630155;05.09.16 20:27;ул. Ударная 25/1.;Тушение пожара;Многоквартирный жилой дом;82.8635181377383;54.9675622452518;8;;;;
1630171;06.09.16 0:43;с/о. Зеленый Мыс2 7я Авганская 220.;Тушение пожара;Садовый дом, дача;83.0720826988928;55.0344396483887;19;7;169;60;18
1630240;07.09.16 0:12;ул. Ракитная 1-Я 128.;Тушение пожара;Транспортные средства;82.8684896254015;55.019957263253;8;2;18;6;8
1630401;08.09.16 6:57;ул. Короленко 102.;Тушение пожара;Транспортные средства;82.9643048991858;55.0171159282188;4;1;17;4;8
1630516;08.09.16 18:38;ул. Ковальчук 1.;Тушение пожара;Здания производственного назначения;82.881127278347;55.0473780667335;9;28;53;47;35
1630672;10.09.16 3:15;ул. Флотская 21.;Тушение пожара;Неэксплуатируемые здания (сооружения);82.995964046957;55.1718498038893;8;5;32;;
1630757;10.09.16 22:58;Некрасова 27.;Тушение пожара;Надворные постройки;83.0838770019843;54.7567074954975;6;1;198;60;7
1630767;11.09.16 2:47;ул. Печатников 13.;Тушение пожара;Здания,сооружения и помещения предприятий торговли;82.9758141843703;54.8651773311522;4;8;44;5;6
1630770;11.09.16 3:15;ул. Титова 204.;Тушение пожара;Транспортные средства;82.8227331094998;54.9799397097119;7;1;10;;
1630845;11.09.16 17:06;ул. Доватора 37;Тушение пожара;Многоквартирный жилой дом;83.0022275275973;55.0376938980579;9;3;52;10;9
1630983;12.09.16 6:53;ул. Приморская 19.;Тушение пожара;Транспортные средства;82.9856091077504;54.8579011231447;6;1;11;5;7
1631013;12.09.16 11:31;ул. Терешковой 33.;Тушение пожара;Транспортные средства;83.1167224210587;54.8373635627993;9;1;11;5,5;8
1631022;12.09.16 11:52;ул. Советская 2.;Тушение пожара;Прочие обьекты пожара;82.9218613010119;55.0198572359512;5;1;7;0,2;6
1631028;12.09.16 12:34;ул. Твардовского 22/1;Тушение пожара;Многоквартирный жилой дом;83.1235575024774;54.9340154576886;8;;2;0,3;9
1631054;12.09.16 13:43;ул. Невельского 29.;Тушение пожара;Надворные постройки;82.8250782890187;54.993056760644;9;8;30;30,5;7
1631220;13.09.16 20:53;ул. Чулымская 3-Я 165.;Тушение пожара;Надворные постройки;82.8894661649322;55.0112997405564;9;4;43;21;12
1631240;13.09.16 23:39;ул. Тюменская 16.;Тушение пожара;Складские здания;82.9546832383115;54.954762821634;9;42;497;450;44
1631243;14.09.16 0:43;ул. Сиреневая 7.;Тушение пожара;Одноквартирный жилой дом;83.0393438585752;54.8526912097498;8;3;13;7;10
1631279;14.09.16 11:09;ул. Приграничная 1.;Тушение пожара;Прочие обьекты пожара;83.1421647976504;54.9371167749646;10;18;53;6;28
1631367;15.09.16 5:26;ул. Кошурникова 37;Тушение пожара;Многоквартирный жилой дом;82.976224129376;55.0395132292227;7;1;13;4;10
1631509;16.09.16 3:18;ул. Титова 11.;Тушение пожара;Транспортные средства;82.8825010089067;54.9822237791122;7;1;7;3;8
1631634;17.09.16 8:24;ул. Тополевая 3.;Тушение пожара;Надворные постройки;82.9428177046129;55.0292761723364;7;3;25;5;4
1631749;17.09.16 22:51;ул. Сеченова 17;Тушение пожара;Многоквартирный жилой дом;82.8836214158678;55.0818282245969;9;1;21;5;14
1631783;18.09.16 4:50;ул. Русская 35 А.;Тушение пожара;Прочие административные здания;83.0516537790474;54.8464095743374;10;11;8;15;14
1631834;18.09.16 16:25;ул. Солидарности 84.;Тушение пожара;Прочие обьекты пожара;82.953125804554;55.1567248463797;9;1;25;;
1631871;18.09.16 19:34;ул. Амосова 62.;Тушение пожара;Прочие обьекты пожара;82.9042319745397;55.1193829996635;12;1;22;;
1631911;18.09.16 22:10;"с/о. ""Виктория"",Ул.Железнодоро 19.";Тушение пожара;Надворные постройки;82.9065652908583;55.0663639609579;7;1;39;12,5;7
1631933;19.09.16 3:05;ул. Пестеля 29.;Тушение пожара;;82.8904680241003;55.0807735234828;10;10;160;135;14
1631955;19.09.16 9:43;шс. Гусинобродское 41/1.;Тушение пожара;Прочие обьекты пожара;83.0322946714291;55.041557022847;7;5;88;200;12
1632055;19.09.16 22:31;ул. Полярная 22.;Тушение пожара;Надворные постройки;82.8598222172784;55.0277316699657;2;6;130;30;11
1632082;20.09.16 3:32;ул. Сухарная 101/1.;Тушение пожара;Транспортные средства;82.8625949473193;55.047431385213;7;1;13;4;6
1632089;20.09.16 6:57;ул. Тюленина 22.;Тушение пожара;Здания,сооружения и помещения предприятий торговли;82.9392398942276;55.1107580420339;6;6;13;13;11
1632213;21.09.16 2:27;ул. Приморская 9/1.;Тушение пожара;Прочие административные здания;82.982187822619;54.8567663302378;5;17;410;375;27
1632219;21.09.16 3:40;ул. Плотинная 7.;Тушение пожара;Прочие обьекты пожара;83.0285520647255;54.8530186235675;10;1;147;20;4
1632246;21.09.16 15:24;ул. Громова 23.;Тушение пожара;Транспортные средства;82.9104169438742;54.9324057126896;9;1;9;5;7
1632296;22.09.16 2:22;ул. Звездная 22.;Тушение пожара;Прочие обьекты пожара;83.0680733114555;54.9540004775581;10;3;82;4;7
1632307;22.09.16 5:53;ул. Выборная 211/5.;Тушение пожара;Прочие обьекты пожара;83.0552381712916;54.9952544018472;10;5;61;15;8
1632334;22.09.16 15:09;ул. Кропоткина 119/1.;Тушение пожара;Транспортные средства;82.9204750118851;55.0559053034359;5;1;9;8;5
1632336;22.09.16 16:51;ул. Ковальчук 185.;Тушение пожара;Многоквартирный жилой дом;82.9208824814929;55.0631740857028;5;;;0;0
1632356;22.09.16 19:32;ул. Железнодорожная 9;Тушение пожара;Многоквартирный жилой дом;82.8990754156214;55.0452146267016;4;3;13;2;14
1632380;23.09.16 5:15;Ул.Лунная 2.;Тушение пожара;Транспортные средства;83.0545377981884;54.749278343395;4;1;27;6;5
1632404;23.09.16 11:51;ул. Доватора 126.;Тушение пожара;Транспортные средства;83.0005021990023;55.0361584099328;9;1;9;2;8
1632564;24.09.16 16:39;ул. Шорная 62.;Тушение пожара;Одноквартирный жилой дом;82.8773369477215;55.0434196710872;5;4;18;40;7
1632623;24.09.16 22:35;Ул. Гранитная 21.;Тушение пожара;Транспортные средства;83.075588439893;54.7324080397797;6;1;1;3;6
1632709;25.09.16 18:28;ул. Колхидская 11;Тушение пожара;Многоквартирный жилой дом;82.8169935742401;54.9892733431808;5;8;10;10;12
1632710;25.09.16 18:52;ул. Переселенческая 120.;Тушение пожара;Надворные постройки;82.9943572846179;55.0021616091921;10;2;66;15;8
1632786;26.09.16 1:18;ул. Железнодорожная 5.;Тушение пожара;Многоквартирный жилой дом;82.8971159160427;55.0446412808077;6;4;19;5;25
1632791;26.09.16 2:20;ул. Виктора Уса 1.;Тушение пожара;Транспортные средства;82.8841552230851;54.9416642013716;8;1;14;5;8
1632797;26.09.16 3:12;ул. Тюленина 16/1.;Тушение пожара;Транспортные средства;82.9437905718416;55.1093439498214;6;;;0;0
1632806;26.09.16 6:08;ул. Белинского 332.;Тушение пожара;Одноквартирный жилой дом;82.9778962599197;55.0095022635068;6;29;74;33,25;17
1632899;27.09.16 1:17;ул. Коммунстроевская 15.;Тушение пожара;Одноквартирный жилой дом;82.9596750217928;55.0036966963454;7;14;236;111;15
1633026;28.09.16 2:33;Степная 71.;Тушение пожара;Транспортные средства;82.8613149493706;54.9765420981644;5;1;14;2,5;8
1633027;28.09.16 3:09;ул. Есенина 3/1.;Тушение пожара;Складские здания;82.9958116110919;55.0502549119941;10;25;531;163;26
1633117;28.09.16 20:35;ул. Гоголя 34.;Тушение пожара;Транспортные средства;82.9305940942499;55.0429664822417;5;1;67;0,5;6
1633141;29.09.16 3:27;ул. Котовского 15.;Тушение пожара;Транспортные средства;82.8765741199813;54.9918291842275;6;1;18;3;9
1633345;30.09.16 17:59;ул. Выборная 139.;Тушение пожара;Транспортные средства;83.0226768568914;55.0077704245897;10;1;10;7;8
1633350;30.09.16 19:16;ул. Рогачева 32.;Тушение пожара;Транспортные средства;83.0669315817069;54.7460991478664;4;1;5;3;4
1633467;01.10.16 19:12;ул. Хитровская 20.;Тушение пожара;Одноквартирный жилой дом;82.9926288374104;54.9917608342304;8;1;5;0;0
1633520;02.10.16 0:24;ул. Алмазная 8.;Тушение пожара;Надворные постройки;83.0072234233414;55.0619472535948;10;3;139;36;7
1633624;02.10.16 15:21;ул. Петухова 40;Тушение пожара;Многоквартирный жилой дом;82.9037123131263;54.9396391983481;6;3;8;2;7
1633650;02.10.16 16:30;ул. Солидарности 70.;Тушение пожара;Прочие обьекты пожара;82.9576011617105;55.1541062913602;7;1;17;;
1633656;02.10.16 16:48;ул. Большая 233.;Тушение пожара;Одноквартирный жилой дом;82.8331858234024;55.0143745057503;7;18;245;99;12
1633680;02.10.16 18:49;ул. Барьерная 7.;Тушение пожара;Прочие обьекты пожара;82.9873713991436;54.8626862332275;6;1;5;3;5
1633686;02.10.16 19:37;ул. Народная 77.;Тушение пожара;Прочие обьекты пожара;82.9688916896338;55.081308003271;6;0;3;3;6
1633697;02.10.16 20:06;Обские Зори 32.;Тушение пожара;Одноквартирный жилой дом;82.9574038552917;54.997012060732;10;20;112;100;14
1633704;02.10.16 20:30;ул. Моисеенко 114.;Тушение пожара;Надворные постройки;82.966200150493;55.0166175654082;10;4;62;55;8
1633747;03.10.16 1:04;ул. Тихвинская 8;Тушение пожара;Многоквартирный жилой дом;82.8673573149246;54.9786383231568;8;1;11;2;8
1633760;03.10.16 5:11;ул. Беловежская 10.;Тушение пожара;Транспортные средства;82.8936446449104;54.9645508625116;5;1;13;5;7
1633862;03.10.16 18:33;ул. Овчукова 4.;Тушение пожара;Надворные постройки;82.9653849538044;55.0850064656191;10;1;19;0;0
1633874;03.10.16 19:19;ул. Грибоедова 80.;Тушение пожара;Транспортные средства;82.9670539280016;55.0139316582766;9;;;0;6
1633927;04.10.16 4:22;ул. Гвардейской 9-Й Дивизии 17.;Тушение пожара;Транспортные средства;82.8474568330919;54.9678776444828;7;2;9;8;12
1633970;04.10.16 11:51;Ул.Лунная 28.;Тушение пожара;Транспортные средства;83.0647954646309;54.74074805201;3;1;5;6;4
1634080;05.10.16 11:25;ул. Толбухина 2;Тушение пожара;Многоквартирный жилой дом;83.0032011984687;55.0417020908148;7;4;12;12;25
1634162;05.10.16 18:10;ул. Лазурная 27/1.;Тушение пожара;Прочие обьекты пожара;83.0185153515131;55.0344081577449;10;;;0;3
1634234;06.10.16 0:38;ул. Военная 16.;Тушение пожара;Транспортные средства;82.9448114583201;55.0280420659061;7;1;10;6;10
1634235;06.10.16 0:39;ул. Вавилова 14.;Тушение пожара;Здания, помещения здравоохранения и социального обслуживания населения;82.8954993085569;55.0571665785422;3;4;15;5;37
1634349;06.10.16 17:05;ул. Панфиловцев 48.;Тушение пожара;;82.9840507495934;55.0217294098325;5;12;34;120;13
1634388;06.10.16 21:14;ул. Солидарности 88.;Тушение пожара;Прочие обьекты пожара;82.9522624696614;55.156259079201;8;3;36;;
1634399;06.10.16 22:48;ул. Ипподромская 45;Тушение пожара;Многоквартирный жилой дом;82.9403804565878;55.0466688101056;10;;;0;8
1634490;07.10.16 18:28;пос. Плановый,Ул.Механизаторов 22.;Тушение пожара;Надворные постройки;82.9625918240368;54.8644268686112;5;1;59;10;9
1634515;08.10.16 0:16;ул. Петухова 53.;Тушение пожара;Транспортные средства;82.8796905771744;54.9439096315896;8;6;3;10;11
1634528;08.10.16 4:46;Бродского 2/1.;Тушение пожара;Отдельно стоящая хозяйственная постройка;82.9812657542155;55.0569362962436;4;1;67;15;7
1634542;08.10.16 9:08;ул. Танковая 25.;Тушение пожара;Многоквартирный жилой дом;82.929320875643;55.0605567792352;8;7;17;7;15
1634633;09.10.16 2:49;ул. Ленинградская 141.;Тушение пожара;Транспортные средства;82.9641154410809;55.0114370923056;7;1;10;4;4
1634743;09.10.16 19:48;Микрорайон 56.;Тушение пожара;Транспортные средства;83.0587589726439;54.7430883758611;4;0;1;0,5;5
1634913;11.10.16 0:22;ул. Панфиловцев 62.;Тушение пожара;Транспортные средства;82.9919838147685;55.0177892991787;5;3;11;10;8
1634923;11.10.16 3:29;ул. Почтовый Лог 1.;Тушение пожара;Прочие обьекты пожара;82.9985192364388;55.0520147759972;8;8;42;6;9
1635017;12.10.16 2:44;ул. Серебренниковская 4/1.;Тушение пожара;Транспортные средства;82.9302167747912;55.0169211985413;2;1;32;5;5
1635018;12.10.16 2:46;ул. Волховская 33.;Тушение пожара;Транспортные средства;82.8346540856906;54.9701211384123;9;1;13;5;12
1635055;12.10.16 8:46;пер. Новый 24.;Тушение пожара;Надворные постройки;83.1089229542146;54.8419819158039;8;2;74;30;10
1635122;12.10.16 20:44;"ул. Новая Днт ""Ивушка"" 80.";Тушение пожара;Садовый дом, дача;83.0391545191623;54.8839289285337;10;4;96;34;14
1635141;13.10.16 2:09;ул. Заельцовская 1.;Тушение пожара;Транспортные средства;82.8892383872522;55.0487736520126;6;;;0;7
1635301;14.10.16 5:47;ул. Гребенщикова 9.;Тушение пожара;Транспортные средства;82.9402305522224;55.1115323139652;6;3;14;5;8
1635315;14.10.16 8:19;ул. Социалистическая 67.;Тушение пожара;Прочие обьекты пожара;82.9219473708461;54.974853905856;9;5;21;5;9
1635391;14.10.16 19:35;"с/о. ""Строитель"" Ул.Юго-Западн 29.";Тушение пожара;Садовый дом, дача;83.0994765182193;54.8594408796314;10;7;170;56;11
1635424;15.10.16 1:48;Ул.Красина 9.;Тушение пожара;Одноквартирный жилой дом;83.0995735336787;54.7464743233834;8;1;114;30;8
1635437;15.10.16 5:51;ул. Бронная 11.;Тушение пожара;Надворные постройки;82.9628499761577;54.9509018947773;10;3;62;21;16
1635522;15.10.16 23:56;ул. Коминтерна 166.;Тушение пожара;Здания,сооружения и помещения предприятий торговли;83.0245213918846;55.0402898133562;10;3;85;49;12
1635636;17.10.16 1:34;ул. Сухарная 138.;Тушение пожара;Надворные постройки;82.8642933123457;55.0453270899937;10;1;19;10,5;8
1635638;17.10.16 1:41;ул. Макаренко 19/1;Тушение пожара;Многоквартирный жилой дом;82.9618125391014;55.0995290752905;7;2;22;15,5;14
1635697;17.10.16 15:48;ул. Зорге 74.;Тушение пожара;Надворные постройки;82.9049881001713;54.9310112951424;8;1;69;6;10
1635726;17.10.16 20:52;Ул. Кольцова 13.;Тушение пожара;Надворные постройки;83.0653610695264;54.757860351696;6;1;22;16;9
1635742;18.10.16 2:43;ул. Державина 59.;Тушение пожара;Прочие обьекты пожара;82.9401893461885;55.0408648097635;6;3;65;18;5
1635870;18.10.16 20:47;ул. Бетонная 6/1.;Тушение пожара;Прочие обьекты пожара;82.9150562755127;54.9554498308288;10;2;26;20;5
1635961;19.10.16 14:59;ул. Ударная 15;Тушение пожара;Многоквартирный жилой дом;82.8660900977124;54.9652063854113;8;;;0;11
1635965;19.10.16 15:20;ул. Чехова 411.;Тушение пожара;;82.9837076254;55.0051880972026;6;3;10;5;9
1635980;19.10.16 18:03;ул. Академическая 13.;Тушение пожара;Надворные постройки;83.1111714475993;54.8367160706247;7;1;7;5;8
1636039;20.10.16 8:06;ул. Жемчужная 24;Тушение пожара;Многоквартирный жилой дом;83.0913120686192;54.8376974580083;6;2;21;1,5;8
1636087;20.10.16 17:06;шс. Гусинобродское 29.;Тушение пожара;Многоквартирный жилой дом;83.0127800330112;55.0385937254812;10;;;;8
1636089;20.10.16 17:57;ул. Фабричная 10.;Тушение пожара;Складские здания;82.9117088236581;55.0203686235988;7;2;13;8;17
1636142;21.10.16 10:51;ул. Бердышева 134.;Тушение пожара;Одноквартирный жилой дом;82.9480774555838;54.8679044215466;1;5;36;10;10
1636173;21.10.16 16:06;ул. Науки 16.;Тушение пожара;Одноквартирный жилой дом;83.004123378472;55.0737062880656;8;1;17;1;9
1636202;21.10.16 18:38;ул. Петухова 69/3 К.9.;Тушение пожара;Транспортные средства;82.911402659186;54.9434478708598;10;2;54;15;11
1636228;21.10.16 21:13;ул. Большая 254/2.;Тушение пожара;Прочие обьекты пожара;82.8812977415627;55.0064269972088;10;2;46;0;10
1636264;22.10.16 8:36;Ул. Карла Маркса 11.;Тушение пожара;Прочие обьекты пожара;83.0894815885513;54.7635892053564;8;1;21;15;9
1636281;22.10.16 9:58;ул. Магистральная 4.;Тушение пожара;Здания,сооружения и помещения предприятий торговли;82.9859183345712;55.1601602612483;5;4;34;0;0
1636364;22.10.16 20:06;ул. Полярная 107;Тушение пожара;Одноквартирный жилой дом;82.8416074404324;55.0316884813495;5;6;185;141,1;14
1636382;22.10.16 22:59;ул. Грибоедова 73;Тушение пожара;Многоквартирный жилой дом;82.9644913106152;55.0127587612967;4;4;3;3;10
1636387;22.10.16 23:58;ул. Уральская 12.;Тушение пожара;Надворные постройки;83.1315841296602;54.966067544162;7;2;33;27;9
1636397;23.10.16 2:31;Ул. Искитимская 44.;Тушение пожара;Надворные постройки;83.0718337764878;54.7519576659184;6;1;41;15;10
1636504;24.10.16 11:14;ул. Чехова 332.;Тушение пожара;Надворные постройки;82.9796382379123;55.0063987787693;4;4;48;30;10
1636554;24.10.16 21:21;ул. Петухова 33.;Тушение пожара;Прочие административные здания;82.8471409342296;54.9456555652536;8;4;26;11;20
1636699;26.10.16 3:23;ул. Октябрьская 15.;Тушение пожара;Прочие обьекты пожара;82.915426172431;55.0244022608367;5;1;15;4;8
1636701;26.10.16 4:03;ул. Сибиряков-Гвардейцев 49.;Тушение пожара;Прочие административные здания;82.9005752533193;54.9521674875128;5;3;64;10;10
1636718;26.10.16 10:02;ул. Северная 1-Я 50.;Тушение пожара;;82.7097693140757;54.9957508602714;7;15;111;124;6
1636841;26.10.16 23:10;ул. Солидарности 99 К1.;Тушение пожара;Прочие обьекты пожара;82.955157315406;55.1522974978097;10;1;29;;
1636865;27.10.16 4:30;ул. Слюдянка 81.;Тушение пожара;Прочие обьекты пожара;82.996205569912;54.8684007078051;8;2;56;52,5;8
1636868;27.10.16 4:37;Ул. Огнеупорная 14.;Тушение пожара;Одноквартирный жилой дом;83.094716097303;54.7729807003485;10;2;142;100;13
1636946;27.10.16 19:04;ул. Ясная 4 Д.;Тушение пожара;Одноквартирный жилой дом;83.0085522794286;54.8751854585981;13;2;19;20;10
1637032;28.10.16 20:44;ул. Борьбы 7.;Тушение пожара;Одноквартирный жилой дом;83.1457231565205;54.9613974805636;7;3;110;48;7
1637095;29.10.16 12:35;ул. Солидарности 86.;Тушение пожара;Прочие обьекты пожара;82.9523995156332;55.1570367724344;10;1;1;;
1637160;29.10.16 23:01;ул. Декабристов 117.;Тушение пожара;Прочие обьекты пожара;82.9609519953049;55.005748348646;6;1;30;8;10
1637182;30.10.16 1:13;ул. Славянская 99.;Тушение пожара;Одноквартирный жилой дом;82.9531726867174;55.0632015243246;10;9;12;5;9
1637219;30.10.16 10:47;ул. Есенина 14;Тушение пожара;Многоквартирный жилой дом;82.9877347874068;55.0411233055709;10;10;54;9;9
1637235;30.10.16 15:03;ул. Станционная 32.;Тушение пожара;Прочие обьекты пожара;82.8515352541539;54.9979236753188;5;5;18;15;15
1637310;31.10.16 7:59;ул. Северная 1.;Тушение пожара;Транспортные средства;82.9203360804227;55.0733494559837;9;1;3;2;6
1637467;01.11.16 21:30;пер. Экскаваторный 4-Й 1.;Тушение пожара;Одноквартирный жилой дом;82.7927690546311;55.0278901640893;10;6;96;50;16
1637484;02.11.16 2:50;ул. Светлая 130.;Тушение пожара;Одноквартирный жилой дом;82.9471600059361;55.063720382797;10;4;178;288;16
1637635;03.11.16 5:17;ул. Чаплыгина 109.;Тушение пожара;Транспортные средства;82.9308103079122;55.0273025141127;5;1;32;5;7
1637665;03.11.16 11:18;ул. Широкая 117;Тушение пожара;Многоквартирный жилой дом;82.8478312050051;54.9923413671734;6;1;10;2;16
1637677;03.11.16 13:18;ул. Первомайская 176.;Тушение пожара;Транспортные средства;83.0773210198369;54.9734086532814;4;1;7;5;8
1637723;03.11.16 18:57;Проезд Садовый 54.;Тушение пожара;Надворные постройки;82.8466822662284;54.982999399964;10;1;114;48;11
1637871;04.11.16 17:58;ул. Охотская 52.;Тушение пожара;Надворные постройки;82.906774157453;55.119621771432;10;4;62;30;13
1637913;05.11.16 0:32;ул. Двинская 35.;Тушение пожара;Одноквартирный жилой дом;82.9540005879065;55.0616768842877;10;7;51;20;15
1637966;05.11.16 14:01;ул. Байдукова 115.;Тушение пожара;;82.7108882646281;54.9853116119312;9;1;45;2;4
1637975;05.11.16 15:07;Черемушная 3/4.;Тушение пожара;Транспортные средства;83.0477380385621;54.7441324693467;3;1;6;4,5;6
1637991;05.11.16 16:45;ул. Тульская 152.;Тушение пожара;Многоквартирный жилой дом;82.902246310077;54.9713353933467;5;2;88;20;15
1638095;06.11.16 19:10;ул. Выставочная 30;Тушение пожара;Многоквартирный жилой дом;82.8939216264995;54.9898761737694;6;2;50;10;12
1638131;07.11.16 3:04;ул. Зорге 9.;Тушение пожара;Транспортные средства;82.9000612181082;54.9368415932578;8;1;6;1,5;6
1638137;07.11.16 5:50;ул. Игарская 20/1.;Тушение пожара;Прочие обьекты пожара;82.9390982694833;55.1054362328286;7;8;100;15;10
1638300;08.11.16 21:42;ул. Сибиряков-Гвардейцев 49/4.;Тушение пожара;Прочие обьекты пожара;82.9236261462984;54.9488023785591;6;7;124;30;29
1638321;09.11.16 9:06;ул. Римского-Корсакова 38.;Тушение пожара;;82.8859327238027;54.9703934774656;5;3;26;10;14
1638393;10.11.16 2:30;ул. Добролюбова 14;Тушение пожара;Многоквартирный жилой дом;82.9502401799724;55.0080151727871;4;6;13;5;17
1638436;10.11.16 16:55;ул. Писарева 20.;Тушение пожара;Многоквартирный жилой дом;82.9182522348717;55.0486557907823;16;22;144;20;56
1638532;11.11.16 22:01;ул. Фабричная 55.;Тушение пожара;Прочие обьекты пожара;82.9037194034669;55.022924458981;6;5;9;0;0
1638566;12.11.16 5:45;ул. Петухова 69/2.;Тушение пожара;Транспортные средства;82.9107996903302;54.942494085902;7;1;8;0;7
1638612;12.11.16 17:06;ул. Седова 104.;Тушение пожара;Транспортные средства;83.002385284298;55.0672166424455;8;1;8;1,5;8
1638687;13.11.16 9:25;ул. Новогодняя 49.;Тушение пожара;Транспортные средства;82.917372685263;54.9865535811307;7;1;3;1,5;12
1638692;13.11.16 9:41;ул. Владимировская 16.;Тушение пожара;Транспортные средства;82.8899569038044;55.0371344064235;6;1;6;2;6
1638711;13.11.16 12:24;Вокзальная 68;Тушение пожара;Многоквартирный жилой дом;82.7264860063036;54.9888125063046;3;10;6;10;4
1638713;13.11.16 12:39;пер. Комбинатский 3.;Тушение пожара;Здания производственного назначения;82.9772381651064;55.0507994066705;3;6;568;200;19
1638757;13.11.16 18:35;ул. Зорге 127;Тушение пожара;Многоквартирный жилой дом;82.9218334441888;54.9373163721098;10;1;15;2;4
1638763;13.11.16 19:34;ул. Газовая 2-Я 45.;Тушение пожара;Надворные постройки;82.9483734959874;55.0652598639932;10;2;29;5;18
1638784;13.11.16 21:33;ул. Шекспира 9;Тушение пожара;Многоквартирный жилой дом;82.9625196009952;55.0521517134833;9;;;10,8;12
1638793;13.11.16 21:16;Ул.Ленина 89/20.;Тушение пожара;Здания производственного назначения;83.1174718916353;54.7583818221139;5;1;38;50;13
1638867;14.11.16 15:09;ул. Маковского 16.;Тушение пожара;;82.9332437509144;55.0131745109425;8;15;112;115;18
1638870;14.11.16 15:38;ул. Зорге 231.;Тушение пожара;Многоквартирный жилой дом;82.9221788812623;54.928840663692;10;6;27;13,5;19
1638917;15.11.16 0:57;ул. Рабочая 4-Я 56.;Тушение пожара;Одноквартирный жилой дом;83.0011074023764;55.0636801228868;8;10;173;108;17
1638955;15.11.16 11:07;ул. Новороссийская 60.;Тушение пожара;Одноквартирный жилой дом;83.0071075774608;55.0471482386481;10;;;0;0
1639007;15.11.16 18:07;ул. Курганская 22.;Тушение пожара;Транспортные средства;82.8428214652719;54.9741574729094;7;3;6;1,5;11
1639061;16.11.16 3:54;ул. Титова 225.;Тушение пожара;Одноквартирный жилой дом;82.8229381659084;54.9794436439916;9;15;174;248;15
1639062;16.11.16 4:04;ул. Тульская 389.;Тушение пожара;Одноквартирный жилой дом;82.8537479907754;54.9616390777112;8;7;116;40;6
1639077;16.11.16 7:12;ул. Зеленодолинская 66.;Тушение пожара;Транспортные средства;83.0697084658264;55.0458983465821;10;1;11;2;7
1639205;17.11.16 4:23;шс. Гусинобродское 33.;Тушение пожара;Здания,сооружения и помещения предприятий торговли;83.0215221807657;55.0404104118582;8;1;33;30;8
1639277;17.11.16 13:25;ул. Виктора Уса 9;Тушение пожара;Многоквартирный жилой дом;82.8832444313803;54.9370202929882;10;6;16;3;18
1639294;17.11.16 17:32;ул. Коминтерна 44.;Тушение пожара;Надворные постройки;83.021016521715;55.052783076375;10;5;122;24;7
1639312;17.11.16 20:46;ул. Балхашская 9.;Тушение пожара;Надворные постройки;82.8958055112902;55.1341892076091;10;1;92;18;10
1639315;17.11.16 20:51;ул. Тянь-Шаньская 3.;Тушение пожара;;82.9070878719277;55.1152928396539;9;1;9;1;3
1639352;18.11.16 3:12;ул. Петухова 104.;Тушение пожара;Транспортные средства;82.9212134733547;54.9394825402654;8;1;16;4;6
1639353;18.11.16 2:46;ул. Островского 73.;Тушение пожара;Многоквартирный жилой дом;83.1092575147109;54.7544926146733;5;2;30;10;17
1639395;18.11.16 11:49;ул. Объединения 23/3.;Тушение пожара;Здания,сооружения и помещения предприятий торговли;82.9627280024793;55.0965082566289;4;8;94;37;8
1639404;02.11.16 12:00;ул. Объединения 96/1;Тушение пожара;Многоквартирный жилой дом;82.9709566028831;55.0978141742947;;;;0;0
1639423;18.11.16 16:38;ул. Твардовского 22/5;Тушение пожара;Многоквартирный жилой дом;83.1170245338695;54.9345345636465;20;;;0;0
1639424;18.11.16 17:04;ул. Изыскателей 50.;Тушение пожара;Надворные постройки;82.9139887324772;54.974304253262;10;3;115;15;12
1639440;18.11.16 19:29;ул. Нижегородская 181.;Тушение пожара;Прочие обьекты пожара;82.9659091809368;55.0056092786337;5;1;35;6;7
1639476;19.11.16 1:57;ул. Комсомольская 3.;Тушение пожара;Здания, помещения сервисного обслуживания населения;82.9660771979565;54.9555973529852;15;4;80;5;10
1639495;19.11.16 6:29;горк. Военная Горка 5-Я Линия 1.;Тушение пожара;Здания производственного назначения;82.9441897165872;55.0326186110732;10;1;71;100;15
1639526;19.11.16 11:21;Ул.Новосибирская 4.;Тушение пожара;Транспортные средства;83.0903570255662;54.804948046426;5;1;14;2;6
1639532;19.11.16 12:21;ул. Гризодубовой 71.;Тушение пожара;Прочие обьекты пожара;82.8403747341653;54.9824963274462;6;1;14;3,75;7
1639593;19.11.16 18:48;ул. Плахотного 91.;Тушение пожара;Одноквартирный жилой дом;82.8525970781714;54.9849247359267;6;4;42;30;18
1639650;20.11.16 0:29;ул. Таловая 68.;Тушение пожара;Одноквартирный жилой дом;83.0650091749189;54.9487876604795;10;1;47;4;4
1639666;20.11.16 3:53;ул. Танковая 37/1;Тушение пожара;Многоквартирный жилой дом;82.9337202073335;55.061764807443;10;4;6;5;11
1639668;20.11.16 4:08;ул. Кропоткина 119/1.;Тушение пожара;Транспортные средства;82.9204750118851;55.0559053034359;6;;;0;5
1639698;20.11.16 9:49;ул. Кропоткина 130/7.;Тушение пожара;Здания,сооружения и помещения предприятий торговли;82.9420371654748;55.0572285886386;10;6;65;20;27
1639786;20.11.16 18:08;ул. Ташкентская 65.;Тушение пожара;Надворные постройки;82.9343106217262;55.0957486567034;4;8;47;20;12
1639791;20.11.16 18:56;ул. Байдукова 138.;Тушение пожара;Одноквартирный жилой дом;82.7100942846637;54.9854694599629;5;2;100;20;8
1639849;21.11.16 4:46;ул. Большая 369 К. 8.;Тушение пожара;Прочие обьекты пожара;82.9009769658244;54.9987659894131;10;9;92;70;13
1639858;21.11.16 5:58;пер. Школьный 18.;Тушение пожара;Надворные постройки;83.1080537859316;54.8430049177132;4;1;59;15;4
1639862;21.11.16 7:02;ул. Толмачевская 33.;Тушение пожара;Прочие обьекты пожара;82.8134252988493;54.965416931847;10;9;52;20;12
1639952;21.11.16 15:57;Ул. Ватутина 9.;Тушение пожара;Одноквартирный жилой дом;83.0726088546911;54.7568435562801;5;1;40;25;8
1639985;22.11.16 1:11;ул. Ковальчук 71.;Тушение пожара;Здания,сооружения и помещения предприятий торговли;82.8926205706995;55.0536883382817;4;1;6;3;7
1640015;22.11.16 3:47;ул. Лескова 100.;Тушение пожара;Надворные постройки;82.9517086534257;55.0213525549337;6;0;72;20;9
1640089;22.11.16 18:29;ул. Большая 210.;Тушение пожара;Одноквартирный жилой дом;82.8820375736968;55.001795683717;10;8;141;35;19
1640099;22.11.16 21:06;ул. Петухова 38/1;Тушение пожара;Многоквартирный жилой дом;82.9048620162004;54.9402504481393;8;;;1;0
1640106;22.11.16 22:19;ул. Чехова 150.;Тушение пожара;Одноквартирный жилой дом;82.9607233450646;55.0142532596264;5;33;145;40;27
1640120;23.11.16 1:22;ул. Есенина 8/1.;Тушение пожара;Транспортные средства;82.9937082860149;55.051804618692;9;1;26;5;9
1640233;24.11.16 2:51;ул. Петухова 103.;Тушение пожара;Транспортные средства;82.9542983710644;54.9395870909946;10;2;4;3;11
1640448;26.11.16 3:07;ул. Одоевского 1/1.;Тушение пожара;Транспортные средства;83.1099529909664;54.9390211519602;10;;;0;0
1640488;26.11.16 15:50;ул. Станционная 40.;Тушение пожара;Прочие обьекты пожара;82.8445723029599;54.9974488445523;10;3;4;3,75;7
1640498;26.11.16 18:12;ул. Комбинатская 49.;Тушение пожара;;82.9810808822434;55.0480482797011;10;6;108;8;10
1640561;27.11.16 8:19;Лермонтова 86.;Тушение пожара;Надворные постройки;83.104547850124;54.7470647513223;6;1;127;92;14
1640622;28.11.16 4:37;ул. Большая 570.;Тушение пожара;Одноквартирный жилой дом;82.8152191761775;55.0200996768606;10;8;156;110;22
1640628;28.11.16 5:52;ул. Короленко 195.;Тушение пожара;Одноквартирный жилой дом;82.9749346600002;55.0134646672202;7;9;63;0;0
1640641;28.11.16 11:38;ул. Гребенщикова 14;Тушение пожара;Многоквартирный жилой дом;82.9440878692545;55.1145999955008;8;1;18;0;0
1640659;28.11.16 16:11;ул. Петухова 12.;Тушение пожара;Здания, помещения сервисного обслуживания населения;82.8921226310849;54.9412249429971;8;5;7;0;0
1640676;28.11.16 20:16;ул. Каменская 7.;Тушение пожара;Прочие административные здания;82.9291660340789;55.0260194752019;4;5;47;0;0
1640679;28.11.16 20:21;ул. Макетная 3.;Тушение пожара;Транспортные средства;83.0427399597314;54.9783554805107;16;1;7;0;0
1640741;29.11.16 20:40;Ул. Ленина 30;Тушение пожара;Многоквартирный жилой дом;83.0942846689985;54.7629786141376;6;1;11;5;10
1640765;30.11.16 2:10;ул. Боровая Партия 7.;Тушение пожара;Транспортные средства;83.097620803651;54.8111582888874;10;1;16;1;8
1640796;30.11.16 15:36;ул. Полякова 1;Тушение пожара;Многоквартирный жилой дом;83.0410605031249;55.0736154628093;10;;;0,5;9
1640802;30.11.16 18:50;ул. Печорская 31.;Тушение пожара;Надворные постройки;82.8994544904351;54.9965044577846;10;1;40;20;9
1640859;01.12.16 13:59;ул. Жуковского 98.;Тушение пожара;Прочие обьекты пожара;82.8918241525045;55.0640988664654;8;3;8;0;0
1640864;01.12.16 16:43;ул. Дивизии 9-Й Гвардейской 16;Тушение пожара;Многоквартирный жилой дом;82.8931327328751;54.9789599838168;9;6;9;0;0
1640897;02.12.16 6:27;Микрорайон 27.;Тушение пожара;Транспортные средства;83.0481105363275;54.7453065749298;3;1;2;0;0
1640924;02.12.16 14:08;ул. Динамовцев 6;Тушение пожара;Многоквартирный жилой дом;82.9885712408563;54.8606217149356;4;1;23;4;8
1640944;02.12.16 19:47;Ул.Терешковой 21.;Тушение пожара;Одноквартирный жилой дом;83.1007594429377;54.7453494136711;10;1;28;0;0
1640977;03.12.16 4:44;ул. Федосеева 36/1.;Тушение пожара;Прочие обьекты пожара;82.9753503950893;55.0313294582566;10;1;19;0;0
1641051;04.12.16 2:12;ул. Красногорская 19.;Тушение пожара;Надворные постройки;82.8990697780427;55.0730512712376;8;3;100;27;7
1641053;04.12.16 2:55;ул. Сторожевая 19.;Тушение пожара;Надворные постройки;82.9437422101795;54.8708204203818;7;4;80;20;7
1641055;04.12.16 3:50;Ул.Суворова 19.;Тушение пожара;;83.0895206278658;54.7617043965191;6;1;51;0;0
1641067;04.12.16 11:36;ул. Красина 56;Тушение пожара;Многоквартирный жилой дом;82.9636025581464;55.0428923485143;6;3;51;3;31
1641077;04.12.16 15:00;ул. Чапаева 5;Тушение пожара;Многоквартирный жилой дом;83.0722903419418;54.9765859043881;4;9;79;20;16
1641087;04.12.16 19:37;ул. Гоголя 33.;Тушение пожара;Транспортные средства;82.9352468373262;55.0444474363977;7;2;6;1;7
1641091;05.12.16 1:20;ул. Добролюбова 162/1.;Тушение пожара;Транспортные средства;82.9850406569486;55.0308364054333;8;2;10;2;4
1641105;05.12.16 4:56;ул. Черенкова 86.;Тушение пожара;Надворные постройки;83.0200686388174;55.041623788631;11;1;13;0;0
1641111;05.12.16 11:34;ул. Петухова 51.;Тушение пожара;Транспортные средства;82.8643098555035;54.9446869753312;8;;;0;0
