"","NOMER_ZVK","DATE_ZVK","ADDRES","RIDE_TYPE","OBJECT_CATEGORIE","geo_lon","geo_lat","PRIB_TIME","LOC_TIME","LPP_TIME","SQUARE_LOC","PERSONNEL"
"1",1600038,2016-01-01 04:27:00,"ул. Мясниковой 17.","Тушение пожара","Транспортные средства",82.9489196619608,55.1045400221006,6,3,111,130,12
"2",1600071,2016-01-01 10:08:00,"ул. Шамшиных 83","Тушение пожара","Многоквартирный жилой дом",83.1183054088607,54.9421051819206,4,7,29,3,15
"3",1600255,2016-01-02 17:43:00,"ул. Куприна 18","Тушение пожара","Многоквартирный жилой дом",82.9930433219149,55.0389113923482,10,1,5,0,0
"4",1600284,2016-01-02 22:09:00,"ул. Первомайская 220.","Тушение пожара","Транспортные средства",83.0576052734681,54.976426691211,7,NA,NA,NA,8
"5",1600287,2016-01-02 22:52:00,"ул. Новая Заря 14.","Тушение пожара","Многоквартирный жилой дом",82.9803536931711,55.0768932767818,5,12,32,15,21
"6",1600319,2016-01-03 09:21:00,"ул. Фабричная 35.","Тушение пожара","Здания производственного назначения",82.9095448748345,55.0205666397248,7,6,36,5,13
"7",1600410,2016-01-03 21:00:00,"ул. Выборная 29.","Тушение пожара","Одноквартирный жилой дом",82.9869314202307,54.9913132272854,8,6,132,81,26
"8",1600412,2016-01-03 21:40:00,"мрн. Горский 2","Тушение пожара","Многоквартирный жилой дом",82.9087808405996,54.9936274944793,8,7,22,0,0
"9",1600435,2016-01-04 01:56:00,"ул. Школьная 2-Я 43.","Тушение пожара","Прочие обьекты пожара",82.877747017178,55.0005447037171,9,3,115,20,14
"10",1600436,2016-01-04 02:16:00,"ул. Сибиряков-Гвардейцев 44/7.","Тушение пожара","Транспортные средства",82.8965560313528,54.9668901263459,7,1,20,6,8
"11",1600440,2016-01-04 03:42:00,"ул. Выборная 91/4.","Тушение пожара","Транспортные средства",83.0111776223295,55.0043456422544,10,1,14,2,11
"12",1600561,2016-01-05 00:24:00,"ул. Гоголя 3.","Тушение пожара","Многоквартирный жилой дом",82.9152895436464,55.0423255899294,7,4,10,5,9
"13",1600634,2016-01-05 23:40:00,"мрн. Горский 76","Тушение пожара","Многоквартирный жилой дом",82.8922188999245,54.9937298141261,7,13,9,2,15
"14",1600637,2016-01-06 02:42:00,"Сержанта Коротаева 1.","Тушение пожара","Транспортные средства",82.9568085759388,54.9581112724535,8,1,7,3,9
"15",1600642,2016-01-06 05:24:00,"ул. Новая Заря 17","Тушение пожара","Многоквартирный жилой дом",82.9750160723707,55.0786745162109,8,9,54,13,18
"16",1600657,2016-01-06 12:00:00,"ул. Петухова 132","Тушение пожара","Многоквартирный жилой дом",82.9291685671692,54.9363735991713,10,4,36,18,19
"17",1600700,2016-01-06 21:31:00,"ул. Прокопьевская 2-Я 10.","Тушение пожара","Одноквартирный жилой дом",82.979343601774,54.9460755549524,10,8,83,54,18
"18",1600707,2016-01-06 22:49:00,"ул. Грибоедова 129.","Тушение пожара","Многоквартирный жилой дом",82.9713931491628,55.0186235538504,5,5,121,20,22
"19",1600716,2016-01-07 02:31:00,"ул. Тургенева 155.","Тушение пожара","Транспортные средства",82.9560935435444,55.0180089958527,6,1,5,0,9
"20",1600723,2016-01-07 03:12:00,"ул. Титова 18/1.","Тушение пожара","Транспортные средства",82.8763243558153,54.9849629066483,8,1,5,2,13
"21",1600800,2016-01-08 03:06:00,"ул. Воинская 71.","Тушение пожара","Здания,сооружения и помещения предприятий торговли",82.978680208197,55.0192591845335,4,3,42,5,14
"22",1600871,2016-01-08 23:43:00,"ул. Пархоменко 127.","Тушение пожара",NA,82.8376901236235,54.9862023311558,4,5,15,10,19
"23",1600896,2016-01-09 08:19:00,"Ул.Ленина 85","Тушение пожара","Многоквартирный жилой дом",83.1104083955233,54.7592929309643,7,2,12,2,8
"24",1600908,2016-01-09 11:43:00,"ул. Татьяны Снежиной 29.","Тушение пожара","Транспортные средства",83.0111475125622,55.0208212382596,10,1,1,3,8
"25",1600987,2016-01-10 06:30:00,"ул. Ватутина 33/2.","Тушение пожара","Прочие обьекты пожара",82.9011550920501,54.982815577385,8,5,7,0.5,4
"26",1601013,2016-01-10 13:31:00,"ул. Степная 60","Тушение пожара","Многоквартирный жилой дом",82.8637789192459,54.9784781378636,7,6,3,8,13
"27",1601043,2016-01-10 18:28:00,"ул. Макаренко 9","Тушение пожара","Многоквартирный жилой дом",82.9574222114651,55.0985636630675,10,7,35,14,11
"28",1601048,2016-01-10 19:34:00,"Микрорайон 8","Тушение пожара","Многоквартирный жилой дом",83.0574631102136,54.7523460248794,5,1,8,3,6
"29",1601064,2016-01-11 02:12:00,"ул. Покрышкина 65.","Тушение пожара","Надворные постройки",82.7092610522676,54.9879253172097,3,1,56,9,7
"30",1601186,2016-01-12 07:55:00,"спск. Романовский Пеший 7.","Тушение пожара","Одноквартирный жилой дом",82.9390486440647,55.0353964570004,7,3,97,0,0
"31",1601255,2016-01-12 18:41:00,"ул. Сельскохозяйственная 39.","Тушение пожара","Надворные постройки",82.9315102775926,55.0928523967649,10,1,4,0,0
"32",1601311,2016-01-13 02:05:00,"ул. Шоссейная 2-Я 202.","Тушение пожара",NA,82.8707519087995,55.0143506358121,10,2,213,46,23
"33",1601335,2016-01-13 11:24:00,"ул. Красноармейская 186.","Тушение пожара","Одноквартирный жилой дом",82.9779455971635,55.0140242515177,5,17,95,72,15
"34",1601461,2016-01-14 21:49:00,"ул. Бориса Богаткова 184.","Тушение пожара","Транспортные средства",82.966130066893,55.0283542308136,6,1,9,3,7
"35",1601550,2016-01-16 01:47:00,"ул. Автогенная 77.","Тушение пожара","Здания,сооружения и помещения предприятий торговли",82.9727845898839,55.0117693207343,7,5,5,1,8
"36",1601565,2016-01-16 02:49:00,"Ленина 27.","Тушение пожара","Прочие обьекты пожара",83.0948814226588,54.7637306443014,7,6,24,4,7
"37",1601590,2016-01-16 10:41:00,"ул. Краузе 21.","Тушение пожара","Транспортные средства",82.9374886978108,55.11670470592,7,1,2,1,8
"38",1601666,2016-01-17 12:37:00,"ул. Стартовая 43/1.","Тушение пожара","Прочие обьекты пожара",82.9173612245565,54.9979532536277,9,9,22,0,0
"39",1601692,2016-01-17 19:21:00,"ул. Айвазовского 30.","Тушение пожара","Одноквартирный жилой дом",82.9863387029563,55.0523559215734,5,6,184,120,21
"40",1601720,2016-01-18 05:39:00,"ул. Приграничная 6.","Тушение пожара","Складские здания",83.1329705733294,54.9354799659939,16,49,400,0,0
"41",1601784,2016-01-18 19:01:00,"ул. Вокзальная 154.","Тушение пожара","Одноквартирный жилой дом",82.7158970449642,54.98542242008,4,6,73,66,9
"42",1601811,2016-01-19 05:58:00,"ул. Кленовая 37.","Тушение пожара","Прочие обьекты пожара",83.0350174840638,55.0029194088135,10,1,134,40,7
"43",1601817,2016-01-19 09:07:00,"ул. Бориса Богаткова 216","Тушение пожара","Многоквартирный жилой дом",82.9772497841972,55.0335348738618,7,2,1,1,9
"44",1601876,2016-01-19 23:00:00,"ул. Сухарная 1-Я 75.","Тушение пожара","Одноквартирный жилой дом",82.8692970666941,55.0425965421341,7,2,21,3,7
"45",1601905,2016-01-20 05:02:00,"ул. Гайдара 35.","Тушение пожара",NA,82.994634462571,54.9921473495075,9,12,724,64,34
"46",1602032,2016-01-20 22:05:00,"ул. Танковая 32.","Тушение пожара","Строящиеся (реконструируемые) здания (сооружения)",82.931181907984,55.0599698267663,10,4,30,20,16
"47",1602043,2016-01-21 01:28:00,"ул. Гурьевская 147.","Тушение пожара",NA,82.9616223764116,55.0216898017818,7,5,107,30,16
"48",1602045,2016-01-21 02:25:00,"пер. Балластный 21.","Тушение пожара","Одноквартирный жилой дом",82.7851848534526,55.0215262626319,10,5,189,60,19
"49",1602060,2016-01-21 08:42:00,"ул. Бетонная 14/2.","Тушение пожара","Надворные постройки",82.914507314419,54.9587510323524,6,2,29,10,8
"50",1602082,2016-01-21 14:05:00,"ул. Бориса Богаткова 24","Тушение пожара","Многоквартирный жилой дом",82.9436579522613,55.0104339020577,7,7,25,10,17
"51",1602135,2016-01-22 06:08:00,"ул. Петухова 95/1.","Тушение пожара","Многоквартирный жилой дом",82.9495768102712,54.9412531285426,10,NA,NA,NA,NA
"52",1602162,2016-01-22 12:16:00,"ул. Серафимовича 19","Тушение пожара","Многоквартирный жилой дом",82.881496218422,54.9771249188799,9,7,13,18,11
"53",1602236,2016-01-23 11:53:00,"ул. Троллейная 93.","Тушение пожара","Транспортные средства",82.845714567212,54.9605437816066,9,NA,NA,NA,NA
"54",1602254,2016-01-23 15:42:00,"ул. Титова 234/1.","Тушение пожара","Транспортные средства",82.8124003884065,54.9809020786376,7,NA,NA,NA,NA
"55",1602278,2016-01-23 19:57:00,"ул. Владимировская 23.","Тушение пожара","Прочие обьекты пожара",82.8871975515943,55.0390862893287,6,1,26,7.5,9
"56",1602316,2016-01-24 02:46:00,"ул. Столетова 2","Тушение пожара","Многоквартирный жилой дом",82.966607088461,55.0985360382586,8,6,56,15,17
"57",1602362,2016-01-24 12:04:00,"ул. Выборная 4.","Тушение пожара","Транспортные средства",82.9850601739925,54.988003831322,10,1,1,0.5,7
"58",1602550,2016-01-26 15:08:00,"пер. 2-Й Станиславского 17","Тушение пожара","Многоквартирный жилой дом",82.8724042130831,54.9812453669014,7,9,42,40,23
"59",1602602,2016-01-27 05:35:00,"ул. Широкая 35.","Тушение пожара","Здания производственного назначения",82.8532029087543,54.9934789518108,5,1,18,6,13
"60",1602633,2016-01-27 12:27:00,"ул. Речная 89.","Тушение пожара","Одноквартирный жилой дом",83.1439608237573,54.962545501876,9,5,55,100,13
"61",1602642,2016-01-27 13:34:00,"ул. Каменская 44.","Тушение пожара","Многоквартирный жилой дом",82.9280404319085,55.0334149462077,5,14,48,15,24
"62",1602666,2016-01-27 21:50:00,"ул. Ленина 84.","Тушение пожара","Прочие обьекты пожара",82.8998939217233,55.0365228058935,6,3,18,5,9
"63",1602687,2016-01-28 02:17:00,"ул. Солидарности 83.","Тушение пожара","Транспортные средства",82.9533274240744,55.1542793954159,10,1,-6,0,0
"64",1602692,2016-01-28 03:41:00,"ул. Анжерская 31.","Тушение пожара","Одноквартирный жилой дом",82.895276450472,55.1161875035134,9,8,105,15,13
"65",1602726,2016-01-28 10:41:00,"ул. Фабричная 33/1.","Тушение пожара","Транспортные средства",82.9108785705876,55.0194075361464,7,2,5,1,8
"66",1602733,2016-01-28 13:51:00,"ул. Немировича-Данченко 165.","Тушение пожара","Транспортные средства",82.9129635946202,54.987886391902,9,1,9,3,13
"67",1602738,2016-01-14 18:30:00,"ул. Бориса Богаткова 264/1","Тушение пожара","Многоквартирный жилой дом",82.9868048152947,55.0412763715897,NA,NA,NA,0,0
"68",1602739,2016-01-28 15:31:00,"ул. Толбухина 27/2","Тушение пожара","Многоквартирный жилой дом",83.0088841500524,55.0423200990717,9,5,18,3.5,13
"69",1602741,2016-01-28 17:09:00,"шс. Гусинобродское 25","Тушение пожара","Многоквартирный жилой дом",83.009657692445,55.0380287365852,10,5,100,60,20
"70",1602779,2016-01-29 01:42:00,"ул. Шамшиных 85.","Тушение пожара","Транспортные средства",83.1184107691089,54.9419442472915,6,1,2,4,8
"71",1602785,2016-01-29 00:02:00,"Боровая 41.","Тушение пожара","Надворные постройки",83.0722786384102,54.7587943645926,7,3,63,40,9
"72",1602848,2016-01-22 19:30:00,"ул. Учительская 8.","Тушение пожара","Многоквартирный жилой дом",82.9758960881001,55.0743027839786,NA,NA,NA,0,0
"73",1602884,2016-01-29 22:46:00,"ул. Аэропорт 53","Тушение пожара","Многоквартирный жилой дом",82.9058506371708,55.0789122762408,9,NA,NA,NA,11
"74",1602892,2016-01-30 03:23:00,"ул. Артиллерийская 146.","Тушение пожара",NA,82.9816607668687,55.0159496496865,9,NA,NA,0,0
"75",1602968,2016-01-30 19:31:00,"ул. Дунаевского 21.","Тушение пожара","Многоквартирный жилой дом",82.9745026029493,55.1034991480489,5,12,38,10,20
"76",1603014,2016-01-30 23:39:00,"ул. Серафимовича 14","Тушение пожара","Многоквартирный жилой дом",82.8804817056353,54.9791901698094,9,NA,NA,0,13
"77",1603032,2016-01-31 04:11:00,"ул. Пролетарская 249","Тушение пожара","Одноквартирный жилой дом",82.9840132843878,55.0141941017288,8,5,96,97,16
"78",1603068,2016-01-31 11:37:00,"ул. Трикотажная 47/2.","Тушение пожара","Здания,сооружения и помещения предприятий торговли",82.9628882044748,55.0619204704986,5,1,18,5,8
"79",1603094,2016-01-31 18:46:00,"Еловая 4.","Тушение пожара","Надворные постройки",82.8725852045272,55.0689924245821,8,1,11,2,7
"80",1603103,2016-01-31 20:31:00,"ул. Тюменская 21.","Тушение пожара","Надворные постройки",82.950901285823,54.9589848710681,9,2,14,1.5,8
"81",1603116,2016-01-31 23:02:00,"ул. Путевая 17","Тушение пожара","Многоквартирный жилой дом",82.8880055025268,54.9974291803908,6,6,43,8,14
"82",1603118,2016-02-01 00:01:00,"ул. Дегтярева 19.","Тушение пожара","Прочие обьекты пожара",83.0354886654469,55.0428992532018,8,1,19,1,8
"83",1603132,2016-02-01 02:55:00,"ул. Сибиряков-Гвардейцев 56.","Тушение пожара","Здания производственного назначения",82.8958287269095,54.9438309269963,5,19,153,40,34
"84",1603141,2016-02-01 05:00:00,"ул. Флотская Гск ""Сигнал"" 28.","Тушение пожара","Прочие обьекты пожара",82.9942408892712,55.1680595198601,7,8,214,24,9
"85",1603156,2016-02-01 07:14:00,"ул. Московская 259.","Тушение пожара",NA,82.9698796647192,55.0074592651629,3,10,116,20,15
"86",1603194,2016-02-01 14:38:00,"ул. Блюхера 54","Тушение пожара","Многоквартирный жилой дом",82.9101617505182,54.992838496715,9,4,17,5,13
"87",1603200,2016-02-01 15:15:00,"ул. Молодости 23.","Тушение пожара","Транспортные средства",82.9673309270422,54.8600125458715,3,NA,NA,0,0
"88",1603331,2016-02-02 04:16:00,"ул. Героев Труда 9.","Тушение пожара","Транспортные средства",83.0789667062792,54.8616876397198,4,1,25,0,6
"89",1603344,2016-02-02 08:27:00,"ул. Прокатная 81.","Тушение пожара","Одноквартирный жилой дом",82.8452814225915,54.9781614608042,7,3,6,2.2,13
"90",1603394,2016-02-02 20:08:00,"ул. Одоевского 1/7.","Тушение пожара","Многоквартирный жилой дом",83.109191601651,54.9383450346297,10,NA,NA,0,8
"91",1603401,2016-02-02 21:50:00,"ул. Станционная 58/1.","Тушение пожара","Надворные постройки",82.8304164614027,54.9969074387229,6,3,23,12,14
"92",1603417,2016-02-03 03:42:00,"ул. Машиностроителей 17.","Тушение пожара","Одноквартирный жилой дом",82.9773108902875,55.0750289760782,8,2,141,70,10
"93",1603486,2016-02-03 18:20:00,"ул. Абхазская 12 А.","Тушение пожара","Надворные постройки",83.0672152451284,54.8893479648738,10,1,29,0,0
"94",1603507,2016-02-04 01:47:00,"Ул.Гоголя 63.","Тушение пожара","Одноквартирный жилой дом",83.0936477842572,54.7560750815797,9,1,1,2,7
"95",1603566,2016-02-04 19:47:00,"ул. Жуковского 117","Тушение пожара","Многоквартирный жилой дом",82.8920261367997,55.0590896732986,6,1,7,1,7
"96",1603572,2016-02-04 22:26:00,"ул. Авиастроителей 1/8","Тушение пожара","Многоквартирный жилой дом",82.9608339870162,55.0679068692196,7,15,31,2,12
"97",1603674,2016-02-06 07:31:00,"ул. Аникина Михаила 35/1","Тушение пожара","Многоквартирный жилой дом",82.9490566935363,54.9646904482158,10,NA,NA,0,0
"98",1603706,2016-02-06 16:41:00,"ул. Карла Либкнехта 85.","Тушение пожара","Одноквартирный жилой дом",82.9603772596799,55.0228725832257,6,7,9,0,7
"99",1603850,2016-02-09 03:59:00,"ул. Бакинская 6.","Тушение пожара","Транспортные средства",82.8578011636639,54.9795730403595,NA,NA,NA,0,0
"100",1603852,2016-02-09 06:48:00,"ул. Связистов 160.","Тушение пожара","Транспортные средства",82.833187699213,54.9623887365601,9,8,62,21,10
"101",1603856,2016-02-09 10:57:00,"ул. Верещагина 44.","Тушение пожара","Одноквартирный жилой дом",83.0130394285195,55.0724307130729,9,4,16,3,10
"102",1603940,2016-02-10 13:03:00,"ул. Станционная 78.","Тушение пожара","Транспортные средства",82.8013959693175,54.9966797318273,1,1,3,1,11
"103",1603955,2016-02-10 19:51:00,"Химзаводская 11/89.","Тушение пожара","Транспортные средства",83.1354784229952,54.7364180142709,5,1,6,1,8
"104",1603977,2016-02-11 02:34:00,"ул. Свечникова 1.","Тушение пожара","Транспортные средства",82.9451451838005,55.1102826970817,6,1,24,2,10
"105",1603985,2016-02-11 07:12:00,"ул. Зеленхозовская 77","Тушение пожара","Одноквартирный жилой дом",83.0074995864937,55.0611511062826,8,17,288,47,31
"106",1604013,2016-02-11 16:14:00,"ул. Лазурная 14.","Тушение пожара","Транспортные средства",83.0123350157762,55.0339134342252,9,1,6,4,8
"107",1604041,2016-02-11 22:23:00,"ул. Курганская 38 А.","Тушение пожара","Транспортные средства",82.8423403380191,54.970908484844,13,NA,NA,0,0
"108",1604055,2016-02-12 02:40:00,"шс. Гусинобродское 19/1.","Тушение пожара","Транспортные средства",83.0080298827434,55.0389051793113,10,2,13,4,5
"109",1604062,2016-02-12 08:50:00,"ул. Тульская 365.","Тушение пожара","Надворные постройки",82.8583549666333,54.962133015615,10,9,106,19,16
"110",1604098,2016-02-13 00:28:00,"ул. Дегтярева 38.","Тушение пожара",NA,83.0299442479177,55.042362955111,9,7,334,80,28
"111",1604122,2016-02-13 07:47:00,"ул. Татьяны Снежиной 29/3.","Тушение пожара","Транспортные средства",83.0113250242248,55.0217136267905,10,1,6,3,8
"112",1604241,2016-02-15 01:40:00,"ул. Юбилейная 86.","Тушение пожара","Надворные постройки",83.0578890595664,54.9497951337547,10,2,58,12,7
"113",1604315,2016-02-16 08:46:00,"ул. Шамшиных 16.","Тушение пожара","Многоквартирный жилой дом",83.1138471164906,54.9481725303921,2,1,1,1,8
"114",1604353,2016-02-17 01:45:00,"ул. Ивлева 110.","Тушение пожара","Надворные постройки",83.0003003702255,54.870304849449,10,2,32,3,5
"115",1604359,2016-02-17 04:18:00,"ул. Широкая 125.","Тушение пожара","Прочие обьекты пожара",82.844447018871,54.9930861627327,2,1,25,2,8
"116",1604363,2016-02-17 07:39:00,"ул. Петухова 69.","Тушение пожара","Прочие обьекты пожара",82.9054347591107,54.9426945288516,8,1,185,16,20
"117",1604392,2016-02-17 11:33:00,"пер. Трикотажный 2-Й 19.","Тушение пожара","Одноквартирный жилой дом",82.9828130087088,55.0539512006383,9,5,188,90,21
"118",1604468,2016-02-17 20:32:00,"ул. Понтонная 22.","Тушение пожара","Транспортные средства",82.8931341958268,55.0259487279122,7,1,1,8,9
"119",1604491,2016-02-18 02:06:00,"ул. Артиллерийская 41.","Тушение пожара","Одноквартирный жилой дом",82.959292335307,55.0255347432831,9,6,72,60,18
"120",1604494,2016-02-18 03:43:00,"шс. Гусинобродское 20.","Тушение пожара","Прочие обьекты пожара",83.0024797675693,55.0353026482309,5,5,40,15.5,18
"121",1604495,2016-02-18 04:03:00,"ул. Кошурникова 46.","Тушение пожара","Прочие обьекты пожара",82.9871076588292,55.0304331602499,8,7,69,9,23
"122",1604597,2016-02-19 03:30:00,"ул. Большевистская 165","Тушение пожара","Многоквартирный жилой дом",82.9698842229482,54.9968908267424,10,NA,NA,0,0
"123",1604616,2016-02-19 11:30:00,"ул. Невельского 63","Тушение пожара","Многоквартирный жилой дом",82.8102248900326,54.9918516326898,5,3,8,3,17
"124",1604618,2016-02-19 12:22:00,"пр-т. Димитрова 16.","Тушение пожара","Транспортные средства",82.9528821314062,55.0677051889178,3,1,7,1.5,10
"125",1604663,2016-02-20 07:57:00,"ул. Мелиоративная 142.","Тушение пожара","Одноквартирный жилой дом",83.0702290247207,54.9294815305326,10,7,307,60,12
"126",1604667,2016-02-20 08:30:00,"ул. Пушкина 36.","Тушение пожара","Надворные постройки",82.7092797538719,55.0015915350873,10,8,39,20,6
"127",1604730,2016-02-21 02:58:00,"ул. Титова 18/1.","Тушение пожара","Транспортные средства",82.8763243558153,54.9849629066483,6,1,29,7,13
"128",1604742,2016-02-21 08:40:00,"ул. Доватора 19/3.","Тушение пожара","Многоквартирный жилой дом",83.0012451310344,55.0433276195994,8,1,6,1,6
"129",1604798,2016-02-21 18:42:00,"ул. Котовского 48.","Тушение пожара","Прочие обьекты пожара",82.8601765074293,54.9901654670804,5,3,8,15,10
"130",1604846,2016-02-22 03:29:00,"Ул.Радищева 42.","Тушение пожара","Надворные постройки",83.1016561664941,54.7498972219945,9,2,161,60,8
"131",1604848,2016-02-22 04:52:00,"ул. Гурьевская 68.","Тушение пожара","Транспортные средства",82.9532410034397,55.01409265635,5,3,14,1.5,8
"132",1604862,2016-02-21 06:00:00,"ул. Ковальчук 272/3","Тушение пожара","Многоквартирный жилой дом",82.9202274210923,55.0609996022606,NA,NA,NA,0,0
"133",1604892,2016-02-22 14:20:00,"ул. Красина 51.","Тушение пожара","Здания,сооружения и помещения предприятий торговли",82.9609534478583,55.0464204931581,4,1,16,3,9
"134",1604896,2016-02-22 12:37:00,"Суворова 4","Тушение пожара","Многоквартирный жилой дом",83.0904025838636,54.7634437135537,7,4,9,4,10
"135",1604908,2016-02-22 17:36:00,"ул. Станционная 38.","Тушение пожара","Здания производственного назначения",82.8452497160278,54.9974959129367,7,7,216,80,24
"136",1604926,2016-02-22 21:06:00,"ул. Народная 21/1","Тушение пожара","Многоквартирный жилой дом",82.9437952616374,55.0682966113919,10,3,20,3,17
"137",1604928,2016-02-22 21:39:00,"ул. Связистов 141","Тушение пожара","Многоквартирный жилой дом",82.8418156698442,54.9648800589498,8,NA,NA,0,0
"138",1604934,2016-02-22 23:18:00,"ул. Комсомольская 3","Тушение пожара","Многоквартирный жилой дом",82.9660771979565,54.9555973529852,9,6,23,12,21
"139",1604958,2016-02-23 07:11:00,"ул. Узорная 19.","Тушение пожара","Надворные постройки",83.0793909714928,54.9217537754588,10,2,87,5,7
"140",1605009,2016-02-24 02:07:00,"ул. Вертковская 96.","Тушение пожара","Надворные постройки",82.8623551031839,54.9744404887779,8,5,112,15,13
"141",1605012,2016-02-24 05:54:00,"ул. Болотная 49.","Тушение пожара","Одноквартирный жилой дом",82.8790759831065,55.0208278442909,10,5,79,30,19
"142",1605035,2016-02-24 11:23:00,"ул. Герцена 10","Тушение пожара","Многоквартирный жилой дом",82.9655178774726,54.9579898215241,10,9,11,8,18
"143",1605043,2016-02-24 14:09:00,"пер. 2-Й Пархоменко 11","Тушение пожара","Многоквартирный жилой дом",82.8613210882696,54.9870459070686,4,9,146,20,29
"144",1605062,2016-02-24 18:31:00,"Турухановская 95/6.","Тушение пожара","Обьект не определен (неучетные пожары)",82.9610314002352,55.1636313748089,12,3,40,NA,NA
"145",1605259,2016-02-27 03:54:00,"ул. Ковальчук 396/1.","Тушение пожара","Транспортные средства",82.9287708797061,55.0643163104692,6,1,8,0.5,7
"146",1605293,2016-02-27 20:34:00,"ул. Титова 250.","Тушение пожара","Прочие обьекты пожара",82.799122692238,54.9790383032042,10,1,80,24,14
"147",1605306,2016-02-27 21:31:00,"ул. Березовская 5.","Тушение пожара","Одноквартирный жилой дом",82.9481830019194,54.8653623446088,4,2,65,12,9
"148",1605308,2016-02-27 21:48:00,"ул. Фабричная 4/1.","Тушение пожара","Транспортные средства",82.9225563805653,55.015580219465,7,1,2,3,10
"149",1605329,2016-02-28 08:11:00,"ул. Титова 13.","Тушение пожара","Прочие обьекты пожара",82.8816519953876,54.982155577012,8,8,16,6,14
"150",1605365,2016-02-28 20:00:00,"ул. Твардовского 4","Тушение пожара","Многоквартирный жилой дом",83.1281110481689,54.9399505331983,15,11,32,6,25
"151",1605426,2016-01-29 15:07:00,"ул. Толстого 149","Тушение пожара","Многоквартирный жилой дом",82.95671191278,55.0153536475882,NA,NA,NA,0,0
"152",1605483,2016-03-01 07:47:00,"ул. Зорге 233","Тушение пожара","Многоквартирный жилой дом",82.9223095106546,54.9300183940755,10,NA,NA,4,12
"153",1605554,2016-03-02 03:47:00,"ул. Зеленодолинская 7.","Тушение пожара","Транспортные средства",83.0720180017297,55.0452969127901,10,1,14,6,7
"154",1605597,2016-03-02 22:17:00,"ул. Тульская 499.","Тушение пожара","Одноквартирный жилой дом",82.8405323928749,54.9516944131417,10,5,27,8,10
"155",1605602,2016-03-03 04:18:00,"ул. Невельского 63.","Тушение пожара","Многоквартирный жилой дом",82.8102248900326,54.9918516326898,6,NA,NA,0,0
"156",1605667,2016-03-04 07:59:00,"ул. Бориса Богаткова 196","Тушение пожара","Многоквартирный жилой дом",82.9732907371048,55.0328467401538,9,NA,NA,NA,NA
"157",1605798,2016-03-05 21:45:00,"ул. Маковского 76.","Тушение пожара","Одноквартирный жилой дом",82.9438805191295,55.0219151559737,7,11,116,0,14
"158",1605955,2016-03-07 23:56:00,"ул. Чемская 10","Тушение пожара","Многоквартирный жилой дом",82.9641603938097,54.95331610353,10,NA,NA,NA,NA
"159",1605964,2016-03-08 05:14:00,"ул. Холодильная 18.","Тушение пожара","Транспортные средства",82.883911446998,55.0516074550204,5,1,1,1.5,5
"160",1606002,2016-03-08 16:08:00,"ул. Белореченская 45.","Тушение пожара","Надворные постройки",82.9674575517142,55.1699725792056,5,3,80,24,10
"161",1606124,2016-03-09 20:35:00,"ул. Учительская 21.","Тушение пожара","Прочие обьекты пожара",82.9684899437394,55.0785581996703,4,1,54,18,17
"162",1606273,2016-03-11 18:05:00,"ул. Троллейная 93.","Тушение пожара","Транспортные средства",82.845714567212,54.9605437816066,7,NA,NA,NA,13
"163",1606293,2016-03-11 23:38:00,"ул. Крылова 45.","Тушение пожара","Транспортные средства",82.9331908447559,55.042417521317,5,1,9,2,7
"164",1606297,2016-03-12 01:16:00,"ул. Ученых 5","Тушение пожара","Многоквартирный жилой дом",83.1067754224058,54.8344313941103,8,8,16,2,15
"165",1606298,2016-03-12 03:34:00,"ул. Рабочая 1.","Тушение пожара","Надворные постройки",82.6866818313273,54.9865960556214,6,4,68,36,7
"166",1606328,2016-03-12 14:09:00,"ул. Арсенальная 1.","Тушение пожара","Складские здания",82.7032946224204,55.0058503991951,10,11,369,557,29
"167",1606354,2016-03-12 17:32:00,"ул. Коммунстроевская 5.","Тушение пожара","Надворные постройки",82.9592935334488,55.0029923238144,5,4,34,8,10
"168",1606438,2016-03-13 12:39:00,"ул. Шмидта 8.","Тушение пожара","Многоквартирный жилой дом",83.0828854357597,54.9746137269748,2,3,61,10,26
"169",1606553,2016-03-14 18:04:00,"ул. Доватора 31.","Тушение пожара","Многоквартирный жилой дом",83.0000079223424,55.0395587876062,9,12,15,5,8
"170",1606554,2016-03-14 18:22:00,"ул. Пойменная 22.","Тушение пожара","Надворные постройки",83.0133938643118,55.0698289626197,9,15,157,80,19
"171",1606566,2016-03-14 22:01:00,"ул. Лазурная 2","Тушение пожара","Многоквартирный жилой дом",83.0046387026754,55.0333265355804,9,NA,NA,2,NA
"172",1606621,2016-03-16 02:54:00,"ул. Индустриальная 7.","Тушение пожара","Транспортные средства",82.9691122740484,55.0554052760771,7,1,4,0.3,6
"173",1606899,2016-03-20 01:14:00,"плат. Ключ-Камышенское 8","Тушение пожара","Многоквартирный жилой дом",83.0413057036536,54.9875971640383,10,7,10,4,10
"174",1606908,2016-03-20 02:43:00,"ул. Волховская 37 К.3.","Тушение пожара","Строящиеся (реконструируемые) здания (сооружения)",82.8350697393292,54.9712256072332,14,NA,3,1,12
"175",1606944,2016-03-20 14:47:00,"ул. Приграничная 1.","Тушение пожара","Прочие обьекты пожара",83.1421647976504,54.9371167749646,10,33,53,50,19
"176",1606946,2016-03-20 15:10:00,"ул. Жемчужная 22.","Тушение пожара","Транспортные средства",83.0909491744463,54.8371577381899,4,1,8,2,5
"177",1606964,2016-03-20 20:15:00,"ул. Гранитная 37.","Тушение пожара","Надворные постройки",83.1109106099787,54.9405155925735,10,4,38,6,7
"178",1606965,2016-03-20 20:26:00,"ул. Киевская 20.","Тушение пожара","Транспортные средства",82.8473402230178,54.9910968833568,4,1,1,0.5,13
"179",1606968,2016-03-20 21:23:00,"ул. Озерная 122.","Тушение пожара","Надворные постройки",82.835374496287,54.9853454197695,4,1,38,20,13
"180",1606999,2016-03-21 08:45:00,"ул. Чехова 387.","Тушение пожара",NA,82.9817895044623,55.0059812980231,6,7,28,15,9
"181",1607014,2016-03-21 11:58:00,"ул. Мира 62.","Тушение пожара","Здания производственного назначения",82.9352799150413,54.9607686714518,9,28,39,100,33
"182",1607024,2016-03-21 14:55:00,"пер. 1-Й Крашенинникова 7.","Тушение пожара","Здания производственного назначения",82.8684630828276,54.9838996764115,6,11,48,40,17
"183",1607074,2016-03-22 02:15:00,"ул. Бориса Богаткова 171.","Тушение пожара","Транспортные средства",82.9696926743026,55.0345790879511,9,NA,NA,NA,NA
"184",1607154,2016-03-23 04:56:00,"ул. Газонная 10.","Тушение пожара","Одноквартирный жилой дом",83.1152521472298,54.9491127401471,10,7,75,70,11
"185",1607183,2016-03-23 13:21:00,"ул. 2-Ая Прокопьевская 99.","Тушение пожара","Надворные постройки",82.9899971542102,54.9402660796699,11,2,42,62,14
"186",1607189,2016-03-23 13:56:00,"ул. Татарская 83.","Тушение пожара","Надворные постройки",82.9345902006991,55.051914590584,10,3,12,1.5,12
"187",1607288,2016-03-22 10:00:00,"ул. Петухова 87.","Тушение пожара","Транспортные средства",82.9339700269656,54.9410560262728,NA,NA,NA,0,0
"188",1607375,2016-03-25 16:35:00,"ул. Добролюбова 138","Тушение пожара","Многоквартирный жилой дом",82.9746797365217,55.0251261668733,6,6,47,6,20
"189",1607454,2016-03-26 23:24:00,"ул. Севастопольская 18.","Тушение пожара","Надворные постройки",83.0132962067229,55.0570865199247,7,2,32,7,11
"190",1607460,2016-03-27 06:16:00,"ул. Лазурная 4/2.","Тушение пожара","Прочие обьекты пожара",83.0085068347319,55.0334709151051,9,7,32,3,19
"191",1607466,2016-03-27 07:12:00,"ул. Осоавиахима 99.","Тушение пожара","Одноквартирный жилой дом",82.9504068970108,55.0639774139687,10,5,23,25,17
"192",1607474,2016-03-27 15:35:00,"с/о. ""Заря"" 59.","Тушение пожара","Надворные постройки",82.9073312435349,54.9372556825682,10,2,49,5,11
"193",1607490,2016-03-27 18:13:00,"ул. Центральная 139.","Тушение пожара",NA,83.0715586480475,54.9244394994012,10,4,127,75,21
"194",1607501,2016-03-27 19:59:00,"ул. Линейная 51.","Тушение пожара","Одноквартирный жилой дом",82.7156988300141,54.9885320346414,2,1,13,1.5,4
"195",1607530,2016-03-28 02:57:00,"ул. Фрунзе 19.","Тушение пожара","Прочие обьекты пожара",82.9293578821999,55.0377448512417,5,20,6,4,11
"196",1607591,2016-03-28 23:12:00,"ул. Чигорина 20/1.","Тушение пожара","Транспортные средства",82.9573906705405,54.9607186550887,8,NA,NA,NA,NA
"197",1607592,2016-03-28 23:41:00,"Сибиряков-Гвардейцев 62.","Тушение пожара","Здания, помещения сервисного обслуживания населения",82.8963733418498,54.9392114044516,5,NA,NA,0,0
"198",1607672,2016-03-30 04:42:00,"ул. Петухова 101/3.","Тушение пожара","Многоквартирный жилой дом",82.9540653402969,54.9439975237281,10,NA,NA,0,0
"199",1607689,2016-03-30 18:26:00,"ул. Стартовая 43/1.","Тушение пожара","Прочие обьекты пожара",82.9173612245565,54.9979532536277,10,3,3,4,15
"200",1607732,2016-03-31 10:39:00,"ул. Станционная 84/1.","Тушение пожара","Транспортные средства",82.7758899766132,54.9993112201778,4,1,4,6,12
"201",1607769,2016-03-31 18:03:00,"ул. Кошурникова 55","Тушение пожара","Многоквартирный жилой дом",82.9832211733728,55.036937974964,8,1,36,3,14
"202",1607796,2016-04-01 01:56:00,"ул. Толстого 149.","Тушение пожара","Транспортные средства",82.95671191278,55.0153536475882,7,2,13,4,9
"203",1607938,2016-04-02 18:59:00,"Добролюбова 36 К.1.","Тушение пожара","Транспортные средства",82.9558245504746,55.0125746566824,3,1,20,10,7
"204",1607967,2016-04-02 23:38:00,"ул. Шлюзовая 14.","Тушение пожара","Транспортные средства",83.0420085226462,54.8518378056572,7,2,2,7,14
"205",1607977,2016-04-03 02:42:00,"ул. Молодости 30","Тушение пожара","Многоквартирный жилой дом",82.971793081931,54.8593176216791,5,5,6,1.5,5
"206",1608044,2016-04-04 11:33:00,"ул. Гончарная 13.","Тушение пожара","Надворные постройки",82.8982001807228,55.0792281776492,4,2,15,1,8
"207",1608045,2016-04-04 11:33:00,"ул. Гоголя 32/1.","Тушение пожара","Многоквартирный жилой дом",82.9288948600939,55.0428459321193,7,2,7,1,12
"208",1608073,2016-04-05 00:20:00,"ул. Менделеева 11.","Тушение пожара","Транспортные средства",82.9654081048384,55.0760232727777,10,1,14,2.5,8
"209",1608099,2016-04-05 09:48:00,"ул. Есенина 65","Тушение пожара","Многоквартирный жилой дом",82.9937087520023,55.0352650217697,9,2,9,2,9
"210",1608188,2016-04-06 05:42:00,"ул. Выборная 21","Тушение пожара","Многоквартирный жилой дом",82.9864622425779,54.9904074130701,6,1,52,1,14
"211",1608190,2016-04-06 05:46:00,"ул. Гаранина 4.","Тушение пожара","Транспортные средства",82.9641544978596,55.0275931104978,9,1,12,2,4
"212",1608325,2016-04-07 19:26:00,"ул. Тракторная 5.","Тушение пожара",NA,82.9929921819325,55.0538971177304,9,1,22,1,9
"213",1608336,2016-04-08 01:46:00,"пер. 2-Й Порядковый 9.","Тушение пожара","Многоквартирный жилой дом",83.0075181557809,55.075002631579,5,1,1,1,17
"214",1608391,2016-04-08 22:58:00,"ул. Ковальчук 258","Тушение пожара","Многоквартирный жилой дом",82.9102442088383,55.0564793865324,7,1,7,3,9
"215",1608392,2016-04-08 23:43:00,"ул. Петухова 106","Тушение пожара","Многоквартирный жилой дом",82.9223154824052,54.9386700161837,10,NA,NA,NA,NA
"216",1608453,2016-04-09 18:27:00,"ул. Вокзальная 14/2.","Тушение пожара","Многоквартирный жилой дом",82.7290640745585,54.9913954755495,10,10,13,5,9
"217",1608465,2016-04-09 21:08:00,"ул. Невельского 13.","Тушение пожара","Прочие обьекты пожара",82.8305435186668,54.99295799917,7,4,37,0,0
"218",1608499,2016-04-10 02:31:00,"ул. Крамского 42.","Тушение пожара","Здания производственного назначения",82.990466413734,55.0233278861894,8,1,68,10,10
"219",1608517,2016-04-10 11:12:00,"ул. Славянская 136.","Тушение пожара","Надворные постройки",82.9571403507906,55.0635723727618,7,1,31,15,16
"220",1608568,2016-04-10 22:30:00,"ул. Гастелло 5.","Тушение пожара","Надворные постройки",82.9012806917744,55.0780493314033,8,7,144,150,10
"221",1608593,2016-04-11 11:49:00,"прзд. Северный 43.","Тушение пожара","Надворные постройки",82.9023963187528,55.0695384992964,5,1,20,3,9
"222",1608594,2016-04-11 12:09:00,"ул. Чулымская 3-Я 116.","Тушение пожара","Одноквартирный жилой дом",82.8977251093487,55.0100532426657,10,18,153,150,21
"223",1608630,2016-04-11 23:35:00,"ул. Богдана Хмельницкого 1.","Тушение пожара","Прочие обьекты пожара",82.9343036626005,55.0665817802938,9,2,2,15,8
"224",1608632,2016-04-12 02:53:00,"ул. Декабристов 201.","Тушение пожара","Транспортные средства",82.9650284737423,55.0029235376729,7,1,26,5,7
"225",1608640,2016-04-12 07:02:00,"ул. Ученическая 17","Тушение пожара","Многоквартирный жилой дом",83.124303012277,54.9401900087229,10,7,23,6,7
"226",1608722,2016-04-12 22:35:00,"шс. Гусинобродское 33.","Тушение пожара","Здания,сооружения и помещения предприятий торговли",83.0215221807657,55.0404104118582,7,11,57,3,17
"227",1608754,2016-04-13 08:53:00,"Ул.Почтовая 8.","Тушение пожара","Многоквартирный жилой дом",83.0088161504994,55.051626484341,10,1,28,6,12
"228",1608782,2016-04-13 18:43:00,"ул. Хинганская 1.","Тушение пожара","Прочие обьекты пожара",82.7827374047779,55.0064020963609,5,21,323,350,21
"229",1608784,2016-04-13 18:46:00,"шс. Старое 7.","Тушение пожара","Надворные постройки",82.909919304734,55.1200893094283,10,7,60,100,15
"230",1608814,2016-04-14 02:43:00,"ул. Авиационная 25.","Тушение пожара","Транспортные средства",82.9978739596493,55.057696305476,9,NA,NA,NA,NA
"231",1608816,2016-04-14 03:03:00,"ул. Зорге 43.","Тушение пожара","Транспортные средства",82.9060913385609,54.9351789959127,8,1,7,6,6
"232",1608817,2016-04-14 02:35:00,"Ул.Некрасова 75.","Тушение пожара","Надворные постройки",83.091909992036,54.7542151846992,6,4,78,36,7
"233",1608860,2016-04-14 13:57:00,"ул. Твардовского 22/2","Тушение пожара","Многоквартирный жилой дом",83.1215094483897,54.9342243513946,10,NA,NA,2,11
"234",1609032,2016-04-15 10:50:00,"ул. Амосова 68.","Тушение пожара","Прочие обьекты пожара",82.9034150375989,55.1195138688043,7,1,4,NA,NA
"235",1609198,2016-04-15 20:11:00,"ул. Солидарности 86.","Тушение пожара","Прочие обьекты пожара",82.9523995156332,55.1570367724344,9,1,14,NA,NA
"236",1609214,2016-04-15 21:13:00,"ул. Эйхе 11.","Тушение пожара","Транспортные средства",83.098846014156,54.9747327677794,2,1,1,2,8
"237",1609339,2016-04-16 13:45:00,"ул. Солидарности 95.","Тушение пожара","Садовый дом, дача",82.9526583611506,55.1528736978288,20,5,82,NA,NA
"238",1609399,2016-04-16 15:15:00,"Улица 42 21.","Тушение пожара","Садовый дом, дача",83.0949144835314,54.8427525880607,16,1,117,30,8
"239",1609402,2016-04-16 15:20:00,"ул. Петухова 51/2.","Тушение пожара","Транспортные средства",82.8761313756377,54.9517151824062,10,3,26,14,12
"240",1609480,2016-04-16 18:08:00,"ул. Солидарности 87.","Тушение пожара","Обьект не определен (неучетные пожары)",82.9543747754314,55.1536653512565,11,3,2,NA,NA
"241",1609525,2016-04-16 19:46:00,"ул. Покрышкина 46.","Тушение пожара","Надворные постройки",82.7105029187209,54.9887933362368,3,4,35,20,8
"242",1609659,2016-04-17 09:30:00,"ул. Приграничная 4.","Тушение пожара","Транспортные средства",83.1367692331845,54.9280086548965,9,3,18,2,8
"243",1610138,2016-04-18 02:33:00,"ул. Одоевского 1/8.","Тушение пожара","Транспортные средства",83.1063042319121,54.9375742766995,16,1,14,0,8
"244",1610145,2016-04-18 03:38:00,"ул. Лескова 29.","Тушение пожара","Транспортные средства",82.9535236446633,55.0237220099794,9,1,14,4,8
"245",1610216,2016-04-18 13:57:00,"ул. Нахимова 18.","Тушение пожара","Надворные постройки",83.110344839928,54.9592436637826,10,4,45,33,8
"246",1610959,2016-04-20 02:44:00,"ул. Дениса Давыдова 6.","Тушение пожара","Транспортные средства",82.9710917391181,55.0738802934847,10,1,10,3,11
"247",1610966,2016-04-20 06:13:00,"ул. Бородина 14.","Тушение пожара","Прочие обьекты пожара",82.866876100523,54.9317151009432,9,1,5,4,10
"248",1611074,2016-04-20 15:47:00,"ул. Кубовая 105/1","Тушение пожара","Многоквартирный жилой дом",82.8935054633642,55.1276145347192,10,9,40,27,11
"249",1611126,2016-04-20 17:26:00,"ул. Глинки 4.","Тушение пожара","Прочие обьекты пожара",82.9646779429863,55.0490250547923,4,4,48,5,11
"250",1611145,2016-04-20 18:01:00,"ул. Объединение 54.","Тушение пожара",NA,82.9593584767331,55.0926791215582,9,8,111,150,22
"251",1611294,2016-04-21 02:47:00,"ул. Юбилейная 48.","Тушение пожара","Надворные постройки",83.0550208410446,54.9527342604566,12,2,42,30,10
"252",1611397,2016-04-21 12:41:00,"ул. Солидарности 79/2.","Тушение пожара","Прочие обьекты пожара",82.9562442817235,55.1626196748,10,11,8,NA,NA
"253",1611776,2016-04-22 08:44:00,"ул. Зоологическая 64.","Тушение пожара","Одноквартирный жилой дом",83.0608465543223,54.8871198937718,6,2,103,230,19
"254",1612039,2016-04-22 21:32:00,"Ул.Радищева 101.","Тушение пожара","Надворные постройки",83.1117388567308,54.7470566498901,7,1,61,36,6
"255",1612067,2016-04-22 23:59:00,"ул. Русская 1.","Тушение пожара","Транспортные средства",83.0416684324284,54.8494107707221,9,NA,NA,1.5,10
"256",1612074,2016-04-23 00:49:00,"ул. Балластная 15.","Тушение пожара","Транспортные средства",82.7865363965219,55.0222280620613,9,1,7,5,8
"257",1612220,2016-04-24 00:21:00,"ул. Волховская 33.","Тушение пожара","Прочие обьекты пожара",82.8346540856906,54.9701211384123,10,4,4,3,7
"258",1612258,2016-04-24 14:00:00,"Максима Горького 1.","Тушение пожара","Многоквартирный жилой дом",83.1107179229704,54.7614351505726,5,1,52,9,7
"259",1612351,2016-04-25 04:04:00,"ул. Лесосечная 18.","Тушение пожара","Транспортные средства",83.0932008869868,54.8911227106797,10,1,13,6,6
"260",1612364,2016-04-25 05:04:00,"ул. Челюскинцев 10.","Тушение пожара","Транспортные средства",82.9025273702252,55.036758224684,5,1,1,3,9
"261",1612444,2016-04-25 17:32:00,"ул. Дюканова 16 КОР.1.","Тушение пожара","Здания, помещения сервисного обслуживания населения",82.8359346336087,54.9911750388681,3,2,6,3,11
"262",1612648,2016-04-27 00:09:00,"ул. Солидарности 49.","Тушение пожара","Одноквартирный жилой дом",82.977239261265,55.1579939600292,9,13,71,30,15
"263",1612759,2016-04-27 21:02:00,"с/о. Сибирский Мичуринец 26.","Тушение пожара","Садовый дом, дача",82.9513534648003,55.0702657878337,10,2,134,40,8
"264",1612823,2016-04-28 11:58:00,"ул. Серебренниковская 4/1.","Тушение пожара","Места откр. хранения веществ,материалов, с/х угодья и пр. откр. территории, мусор вне здания, трава",82.9302167747912,55.0169211985413,8,1,1,2.25,6
"265",1613003,2016-04-29 18:07:00,"ул. Бориса-Богаткова 270.","Тушение пожара","Транспортные средства",82.9993039467453,55.0449376805952,9,2,5,5,6
"266",1613011,2016-04-29 18:57:00,"ул. Солидарности 86.","Тушение пожара","Прочие обьекты пожара",82.9523995156332,55.1570367724344,7,3,8,NA,NA
"267",1613044,2016-04-30 00:36:00,"ул. Селезнева 28.","Тушение пожара","Здания,сооружения и помещения предприятий торговли",82.9476143035222,55.0416862744884,4,5,60,50,10
"268",1613073,2016-04-30 10:48:00,"ул. Петухова 53.","Тушение пожара","Многоквартирный жилой дом",82.8796905771744,54.9439096315896,4,59,24,16,44
"269",1613086,2016-04-30 11:29:00,"ул. Федосеева 38.","Тушение пожара","Здания, помещения учебно-воспитательного назначения",82.9750407086364,55.0302159931859,7,8,22,6,21
"270",1613290,2016-05-01 05:06:00,"ул. Станционная 60/1.","Тушение пожара","Здания производственного назначения",82.8166206696596,54.9978512830189,5,104,419,1200,61
"271",1613303,2016-05-01 08:48:00,"мрн. Горский 86","Тушение пожара","Многоквартирный жилой дом",82.8867481527573,54.9938979458456,7,21,36,42,30
"272",1613476,2016-05-01 19:28:00,"ул. Урманова 1.","Тушение пожара","Прочие обьекты пожара",82.958097206575,54.9681617811682,9,1,16,5,9
"273",1613575,2016-05-02 00:51:00,"ул. Ленинградская 147/1.","Тушение пожара","Транспортные средства",82.9661951561029,55.010833642312,5,2,10,4,10
"274",1613642,2016-05-02 16:41:00,"ул. Лебедева 10.","Тушение пожара",NA,83.1233049235793,54.944624810842,10,5,105,70,10
"275",1613645,2016-05-02 17:44:00,"ул. Военная 18.","Тушение пожара","Прочие обьекты пожара",82.9461372033616,55.0283100170258,9,1,16,NA,NA
"276",1613691,2016-05-03 02:24:00,"ул. Дружбы 5.","Тушение пожара","Транспортные средства",82.8768735985193,54.990107120509,6,1,17,5,9
"277",1613709,2016-05-03 09:11:00,"ул. Невского 6","Тушение пожара","Многоквартирный жилой дом",82.9019433107306,55.1234082362485,6,4,10,20,13
"278",1613746,2016-05-03 13:46:00,"ул. Тополевая 17.","Тушение пожара","Обьект не определен (неучетные пожары)",82.9456897445982,55.0317558604633,8,1,11,NA,NA
"279",1613882,2016-05-04 00:16:00,"ул. Жуковского 117","Тушение пожара","Многоквартирный жилой дом",82.8920261367997,55.0590896732986,4,7,1,5,8
"280",1613885,2016-05-04 01:21:00,"ул. Русская 27.","Тушение пожара","Многоквартирный жилой дом",83.0469562114172,54.8466284733313,8,NA,NA,0,0
"281",1613999,2016-05-04 14:08:00,"ул. Лейтенанта Амосова 53.","Тушение пожара","Прочие обьекты пожара",82.9638230525865,55.1571653901748,8,1,14,NA,NA
"282",1614214,2016-05-05 00:26:00,"ул. Херсонская 4","Тушение пожара","Надворные постройки",82.8246686460587,54.9795172772857,8,1,14,21,8
"283",1614218,2016-05-05 00:42:00,"ул. Холодильная 18/3.","Тушение пожара","Транспортные средства",82.8842032535145,55.0524870887731,9,1,15,2,7
"284",1614232,2016-05-05 02:56:00,"ул. 9-Й Гвардейской Дивизии 4.","Тушение пожара","Транспортные средства",82.8497493162188,54.9647567361954,10,1,6,2,11
"285",1614255,2016-05-05 09:31:00,"ул. Лермонтова 36.","Тушение пожара","Транспортные средства",82.9266880977527,55.0445556418508,5,1,9,6,8
"286",1614324,2016-05-05 13:06:00,"Ул.Ленина 41","Тушение пожара","Многоквартирный жилой дом",83.1045424890529,54.7616106262245,7,1,2,3,9
"287",1614379,2016-05-05 15:02:00,"ул. Районная 39.","Тушение пожара","Надворные постройки",82.8664858209998,54.9754125786145,8,3,36,25,10
"288",1614385,2016-05-05 15:08:00,"ул. Сиреневая 31","Тушение пожара","Многоквартирный жилой дом",83.0450048744016,54.8542288415621,6,26,22,20,23
"289",1614480,2016-05-05 15:29:00,"ул. Фрунзе 44.","Тушение пожара","Одноквартирный жилой дом",83.0698384266102,54.7573333973261,6,1,62,15,9
"290",1614794,2016-05-06 17:18:00,"ул. Петухова 160/1","Тушение пожара","Многоквартирный жилой дом",82.9466942375352,54.9374354544817,16,6,33,20,21
"291",1614907,2016-05-06 22:35:00,"ул. Гайдара 35.","Тушение пожара","Одноквартирный жилой дом",82.994634462571,54.9921473495075,10,17,92,91,25
"292",1614926,2016-05-06 23:51:00,"ул. Амосова 53.","Тушение пожара","Прочие обьекты пожара",82.9060138550893,55.1193513578326,16,1,10,NA,NA
"293",1614928,2016-05-07 00:27:00,"ул. Инская 56.","Тушение пожара","Прочие обьекты пожара",82.9370672800135,55.0098423569212,8,1,4,6,8
"294",1614961,2016-05-07 08:57:00,"ул. Рябиновая 10/1","Тушение пожара","Многоквартирный жилой дом",83.0265242573383,55.0019540311648,7,4,15,7,15
"295",1615179,2016-05-07 21:49:00,"ул. Солидарности 81.","Тушение пожара","Надворные постройки",82.9575253635691,55.1595760822027,9,3,4,NA,NA
"296",1615239,2016-05-08 08:13:00,"ул. Профсоюзная 13.","Тушение пожара","Надворные постройки",82.9954671186232,55.0259712073616,7,2,65,17,8
"297",1615285,2016-05-08 14:48:00,"ул. Бакинская 67.","Тушение пожара",NA,82.8448138211897,54.9787261738641,9,11,69,80,18
"298",1615362,2016-05-09 04:24:00,"ул. Одоевского 1/11.","Тушение пожара","Многоквартирный жилой дом",83.1009423498117,54.9370847232761,10,NA,NA,3,8
"299",1615423,2016-05-09 19:32:00,"ул. Зеленодолинская 122.","Тушение пожара","Одноквартирный жилой дом",83.0707470786006,55.0473322992599,10,4,33,25,12
"300",1615461,2016-05-10 00:48:00,"ул. Гребенщикова 6.","Тушение пожара","Многоквартирный жилой дом",82.9397863810107,55.1088442359456,7,1,8,0,0
"301",1615471,2016-05-10 02:34:00,"ул. Клубная 21.","Тушение пожара","Транспортные средства",82.7954174097359,55.0192207572196,7,2,9,3,7
"302",1615475,2016-05-10 03:01:00,"ул. Димитрова 5 К2.","Тушение пожара","Прочие обьекты пожара",83.103458278543,54.8640882213112,5,8,40,15,8
"303",1615585,2016-05-10 18:28:00,"ул. Громова 7","Тушение пожара","Многоквартирный жилой дом",82.9107251375638,54.9365644783847,8,4,15,8,9
"304",1615748,2016-05-12 15:11:00,"ул. Гребенщикова 10.","Тушение пожара","Транспортные средства",82.9420544697864,55.1119803320468,5,1,17,5,10
"305",1615750,2016-05-12 15:36:00,"ул. 2-Я Кустарная 12.","Тушение пожара","Одноквартирный жилой дом",82.8563480285439,54.9840849465427,10,3,72,48,10
"306",1615800,2016-05-13 01:02:00,"ул. Штормовая 25","Тушение пожара","Одноквартирный жилой дом",83.0066827289022,54.8725794200872,7,2,114,50,8
"307",1615801,2016-05-13 01:05:00,"ул. Комсомольская 5.","Тушение пожара","Транспортные средства",82.9670818841626,54.9545924771952,10,NA,NA,1,8
"308",1615922,2016-05-13 20:30:00,"ул. Амосова 58.","Тушение пожара","Прочие обьекты пожара",82.9048856463803,55.1192783164359,8,2,2,NA,NA
"309",1615984,2016-05-14 03:33:00,"ул. Декабристов 111.","Тушение пожара","Транспортные средства",82.9583679337411,55.0052439459779,10,1,4,3,4
"310",1616295,2016-05-16 02:21:00,"ул. Лескова 158.","Тушение пожара","Транспортные средства",82.9588541183993,55.0184598271488,5,1,7,4,7
"311",1616297,2016-05-16 03:57:00,"ул. Чехова 134.","Тушение пожара","Одноквартирный жилой дом",82.9546521235464,55.0167663574782,4,16,182,120,18
"312",1616309,2016-05-16 08:52:00,"ул. Чулымская 1-Я 128/1.","Тушение пожара","Надворные постройки",82.8863738668609,55.0141052703653,10,1,13,0.5,11
"313",1616366,2016-05-16 17:39:00,"Ул.Вокзальная 20","Тушение пожара","Многоквартирный жилой дом",83.1077811850969,54.7632116370656,7,1,11,4,7
"314",1616429,2016-05-16 22:06:00,"ул. Геодезическая 17","Тушение пожара","Многоквартирный жилой дом",82.6820128124371,54.9924010195377,10,3,16,5,8
"315",1616439,2016-05-16 23:42:00,"ул. Авиастроителей 14.","Тушение пожара","Здания,сооружения и помещения предприятий торговли",82.9769837888221,55.0733169220276,2,1,19,3,5
"316",1616452,2016-05-17 03:21:00,"ул. Невельского 69.","Тушение пожара","Транспортные средства",82.8090092080208,54.9915778815945,8,1,10,7,7
"317",1616621,2016-05-18 10:25:00,"ул. Новоросийская 3.","Тушение пожара","Надворные постройки",83.0007411454898,55.0513771380096,5,1,27,2,7
"318",1616628,2016-05-18 11:58:00,"ул. Бердышева 66.","Тушение пожара","Одноквартирный жилой дом",82.9615616237914,54.8660701465915,4,5,53,0,10
"319",1616637,2016-05-18 13:16:00,"ул. Военная 16.","Тушение пожара","Прочие обьекты пожара",82.9448114583201,55.0280420659061,10,26,415,NA,NA
"320",1616639,2016-05-18 13:56:00,"ул. Фабричная 43.","Тушение пожара","Надворные постройки",82.907143979319,55.0215997303898,8,11,87,211,17
"321",1616733,2016-05-19 01:12:00,"ул. Сибиряков-Гвардейцев 47/4.","Тушение пожара","Прочие обьекты пожара",82.9007260528325,54.9536879957996,6,5,96,24,9
"322",1616749,2016-05-19 06:20:00,"ул. Серпуховская 15.","Тушение пожара","Надворные постройки",82.9089581780456,55.1169478897065,10,7,63,25,9
"323",1616822,2016-05-19 14:31:00,"прзд. Северный 45.","Тушение пожара","Прочие административные здания",82.9042858421636,55.0701082790705,10,13,63,124,20
"324",1616870,2016-05-19 18:53:00,"ул. Куприна 1.","Тушение пожара","Надворные постройки",82.9926190190157,55.0413511840533,8,11,66,145,15
"325",1616988,2016-05-20 14:33:00,"ул. Телевизионная 44.","Тушение пожара","Одноквартирный жилой дом",82.8898793460239,54.9709552540377,10,10,168,54,12
"326",1617022,2016-05-20 16:27:00,"пл. Широкая 1.","Тушение пожара","Транспортные средства",82.8921436570543,55.0315861658635,2,0,3,3,5
"327",1617036,2016-05-20 16:56:00,"ул. Твардовского 22","Тушение пожара","Многоквартирный жилой дом",83.125597159135,54.9337661374695,10,NA,NA,0,12
"328",1617061,2016-05-20 17:59:00,"ул. Одоевского 3.","Тушение пожара","Прочие обьекты пожара",83.1145759456058,54.939233378226,10,1,48,5,3
"329",1617109,2016-05-20 21:39:00,"ул. Пермитина 18","Тушение пожара","Многоквартирный жилой дом",82.8906336896301,54.9918514158968,7,3,6,2,12
"330",1617266,2016-05-21 16:07:00,"ул. Зорге 219.","Тушение пожара","Надворные постройки",82.9177209128221,54.92985423263,10,4,52,10,8
"331",1617372,2016-05-22 07:40:00,"ул. Амурская 28.","Тушение пожара",NA,82.8544781020839,54.980006475369,5,4,81,262,15
"332",1617485,2016-05-22 16:55:00,"ул. Первомайская 39.","Тушение пожара","Прочие обьекты пожара",83.0830455882697,54.9715472579243,10,1,79,12,7
"333",1617492,2016-05-22 17:33:00,"пос. Аэропорт 2/3.","Тушение пожара","Транспортные средства",82.9210925936708,55.0888415305611,1,1,14,0,0
"334",1617623,2016-05-23 10:35:00,"ул. Твардовского 22.","Тушение пожара","Многоквартирный жилой дом",83.125597159135,54.9337661374695,10,NA,NA,0,0
"335",1617624,2016-05-23 10:36:00,"ул. Солидарности 86.","Тушение пожара","Прочие обьекты пожара",82.9523995156332,55.1570367724344,5,1,6,NA,NA
"336",1617627,2016-05-23 10:30:00,"Ул. Мичурина 22.","Тушение пожара","Надворные постройки",82.9213954958681,55.0481549165894,NA,NA,NA,0,0
"337",1617687,2016-05-23 15:26:00,"ул. Танкистов 3","Тушение пожара","Многоквартирный жилой дом",82.8307440961556,54.98150812584,7,5,35,24,11
"338",1617797,2016-05-23 21:24:00,"ул. Салтыкова-Щедрина 1.","Тушение пожара","Многоквартирный жилой дом",82.907664349821,55.030298243996,3,7,13,16,19
"339",1617888,2016-05-24 14:43:00,"ул. Амосова 77.","Тушение пожара","Прочие обьекты пожара",82.9024460391877,55.1199231273645,6,2,15,NA,NA
"340",1618005,2016-05-25 00:01:00,"ул. Выставочная 41/5.","Тушение пожара","Здания,сооружения и помещения предприятий торговли",82.8951260170941,54.9955134500168,7,3,3,1,8
"341",1618022,2016-05-25 04:56:00,"ул. Профсоюзная 17","Тушение пожара",NA,82.9958558302167,55.0259347208339,7,13,83,116,16
"342",1618152,2016-05-26 00:59:00,"ул. Калинина 30.","Тушение пожара","Транспортные средства",82.7079324329167,54.9889806353006,2,0,3,1,4
"343",1618174,2016-05-26 10:28:00,"ул. Гурьевская 68/1.","Тушение пожара","Здания,сооружения и помещения предприятий торговли",82.951957988032,55.013932497452,3,3,11,3,7
"344",1618579,2016-05-28 23:34:00,"ул. Дуси Ковальчук 238.","Тушение пожара","Транспортные средства",82.8988430484632,55.0529330487393,4,1,3,0.5,6
"345",1618590,2016-05-29 01:26:00,"ул. Физкультурная 32.","Тушение пожара","Надворные постройки",83.0909309207948,54.9799488147066,6,1,39,15,7
"346",1618591,2016-05-29 01:44:00,"с/о. ""Гагарина"",Ул.Бородина 58.","Тушение пожара","Садовый дом, дача",82.8771251574137,54.9364935195723,10,1,60,20,9
"347",1618612,2016-05-29 08:54:00,"ул. Золотодолинская 101.","Тушение пожара","Прочие обьекты пожара",83.1045222086086,54.820589932712,16,1,67,130,17
"348",1618651,2016-05-29 14:49:00,"ул. Надсона 16.","Тушение пожара","Одноквартирный жилой дом",83.1044895987033,54.9408964309464,9,5,211,135,16
"349",1618749,2016-05-30 12:07:00,"ул. Строительная 1","Тушение пожара","Многоквартирный жилой дом",82.7103216809738,54.9916065505685,5,7,12,4,5
"350",1618777,2016-05-30 15:20:00,"ул. Новоуральская 15/4.","Тушение пожара","Надворные постройки",82.9601352903961,55.173224027881,6,2,41,22,7
"351",1618785,2016-05-30 16:59:00,"ул. Механическая 1-Я 1.","Тушение пожара","Надворные постройки",83.0519209848963,54.9643160170432,4,3,13,10,7
"352",1618801,2016-05-30 18:55:00,"ул. Озерная 37.","Тушение пожара","Одноквартирный жилой дом",82.8529541572995,54.9859682905633,4,4,27,20,8
"353",1618828,2016-05-31 00:05:00,"Вокзальная 10.","Тушение пожара","Транспортные средства",83.1063123311978,54.7649975275521,4,1,53,5,6
"354",1618905,2016-06-01 06:34:00,"ул. 2-Я Станционная 38.","Тушение пожара","Прочие обьекты пожара",82.8452497160278,54.9974959129367,5,1,46,20,8
"355",1618913,2016-06-01 10:17:00,"ул. Фабричная 55/3.","Тушение пожара","Транспортные средства",82.8984345885064,55.0238459824361,8,3,11,7,9
"356",1618930,2016-06-01 12:38:00,"ул. Вяземская 15","Тушение пожара","Многоквартирный жилой дом",83.0999007458139,54.8681478681781,2,4,5,6,13
"357",1618998,2016-05-04 21:16:00,"ул. Демакова 6","Тушение пожара","Многоквартирный жилой дом",83.100764960214,54.8625869159458,NA,NA,NA,0,0
"358",1619062,2016-06-02 14:27:00,"ул. Сакко И Ванцетти 108.","Тушение пожара","Прочие обьекты пожара",82.9519424775344,55.0231828405652,5,8,34,5,10
"359",1619064,2016-06-02 14:46:00,"ул. Гоголя 19.","Тушение пожара","Прочие обьекты пожара",82.9271014523952,55.0433390292175,6,1,6,1,4
"360",1619106,2016-06-02 20:00:00,"ул. Чаплыгина 28.","Тушение пожара","Прочие обьекты пожара",82.9148335395877,55.0251799821336,4,1,17,15,8
"361",1619127,2016-06-02 23:07:00,"ул. Лазарева 3.","Тушение пожара","Транспортные средства",82.9692657851319,55.0665739005521,6,NA,NA,0.1,5
"362",1619128,2016-06-02 23:20:00,"ул. Байдукова 171.","Тушение пожара","Надворные постройки",82.7048559975412,54.9827757498467,4,9,78,30,5
"363",1619250,2016-06-03 22:35:00,"ул. Твардовского 18","Тушение пожара","Многоквартирный жилой дом",83.1247250224834,54.9382066648702,13,6,39,8,29
"364",1619341,2016-06-04 15:52:00,"ул. Пермитина 24/1.","Тушение пожара","Транспортные средства",82.8922042676817,54.9905059182448,8,1,21,10,8
"365",1619475,2016-06-05 01:55:00,"ул. Бурденко 2-Я 5.","Тушение пожара","Надворные постройки",82.9197745222826,54.9678316096479,8,6,24,13,9
"366",1619554,2016-06-05 10:24:00,"Попова 11 КОР 3.","Тушение пожара","Здания производственного назначения",83.0785250846567,54.7705690427629,4,2,34,10,9
"367",1619636,2016-06-05 21:37:00,"мрн. Горский 78","Тушение пожара","Многоквартирный жилой дом",82.8911155201725,54.9934674457501,5,NA,NA,NA,12
"368",1619666,2016-06-06 01:33:00,"ул. Лениногорская 61.","Тушение пожара","Одноквартирный жилой дом",83.1125691130247,54.9525008165423,10,4,106,64,12
"369",1619791,2016-06-06 18:29:00,"ул. Жко Аэропорта 8/1.","Тушение пожара","Прочие обьекты пожара",82.6896079426162,54.9968720484099,4,18,29,50,11
"370",1619842,2016-06-07 01:05:00,"ул. Выборная 41.","Тушение пожара","Надворные постройки",82.9886574915141,54.9924716472672,10,8,57,28,11
"371",1619905,2016-06-07 12:27:00,"ул. Складская 2-Я 2.","Тушение пожара","Транспортные средства",83.0561238534623,54.9709512807263,6,1,13,3,4
"372",1619974,2016-06-07 19:57:00,"ул. Свободы 346.","Тушение пожара","Надворные постройки",82.9440941547026,55.0592246383093,10,1,33,12,8
"373",1620015,2016-06-08 04:23:00,"с/о. Конструктор 187.","Тушение пожара","Надворные постройки",82.9745791380201,55.0138528875562,23,1,63,16,8
"374",1620046,2016-06-08 13:44:00,"ул. Серафимовича 2/1.","Тушение пожара","Транспортные средства",82.8781740535477,54.9845596397684,10,NA,NA,0,0
"375",1620113,2016-06-08 19:54:00,"с/о. ""Полянка"" 5.","Тушение пожара","Надворные постройки",82.859589407055,55.0270933051483,10,4,38,12,8
"376",1620127,2016-06-08 22:37:00,"ул. Тельмана 3.","Тушение пожара","Многоквартирный жилой дом",83.092657362116,54.9731534698869,2,16,138,122,10
"377",1620144,2016-06-09 02:47:00,"ул. Немировича-Данченко 91.","Тушение пожара","Здания, помещения сервисного обслуживания населения",82.8851151864511,54.9721791524166,8,1,2,0.3,8
"378",1620270,2016-06-09 16:56:00,"ул. Приморская 23.","Тушение пожара","Надворные постройки",82.987220797436,54.8588580003661,3,4,63,60,5
"379",1620293,2016-06-09 19:14:00,"ул. Флотская 28.","Тушение пожара","Надворные постройки",82.9942408892712,55.1680595198601,10,7,74,108,12
"380",1620355,2016-06-10 02:13:00,"ул. Зорге 205.","Тушение пожара","Транспортные средства",82.9174005939151,54.9311689624765,11,1,8,6,6
"381",1620473,2016-06-10 16:10:00,"ул. Новосибирская 12","Тушение пожара","Многоквартирный жилой дом",82.8430497843882,54.9895536602865,3,5,6,3.5,8
"382",1620477,2016-06-10 16:35:00,"ул. Флотская 28.","Тушение пожара","Надворные постройки",82.9942408892712,55.1680595198601,10,14,167,84,9
"383",1620490,2016-06-10 17:50:00,"ул. Светлая 142.","Тушение пожара","Надворные постройки",82.9464575293024,55.0655346319844,9,4,26,6,8
"384",1620511,2016-06-10 19:54:00,"ул. Нижегородская 27.","Тушение пожара","Надворные постройки",82.9513795085484,55.011661026126,7,2,24,12,9
"385",1620577,2016-06-11 08:45:00,"с/о. ""Майское"" 18.","Тушение пожара","Надворные постройки",82.8839250523971,55.0335864351131,25,2,23,24,7
"386",1620607,2016-06-11 11:33:00,"ул. Флотская 28.","Тушение пожара","Прочие обьекты пожара",82.9942408892712,55.1680595198601,11,36,30,NA,NA
"387",1620718,2016-06-11 18:48:00,"ул. Плахотного 9","Тушение пожара","Многоквартирный жилой дом",82.8825499201795,54.9861435410815,8,9,27,10,11
"388",1620800,2016-06-11 23:38:00,"ул. Ольховская 10.","Тушение пожара","Одноквартирный жилой дом",82.9047098329794,54.9672130562181,4,1,17,6,6
"389",1620824,2016-06-12 04:55:00,"ул. Громова 18.","Тушение пожара","Прочие обьекты пожара",82.9077738641879,54.9342202483964,8,1,12,13,8
"390",1620833,2016-06-12 08:38:00,"ул. Новоуральская 27/1.","Тушение пожара","Прочие обьекты пожара",82.9560320367065,55.1759733894998,4,1,9,NA,NA
"391",1620846,2016-06-12 10:41:00,"ул. Гаранина 21.","Тушение пожара","Транспортные средства",82.9688584358215,55.0279845593954,7,1,1,3,10
"392",1620922,2016-06-12 14:26:00,"ул. Державина 59.","Тушение пожара","Надворные постройки",82.9401893461885,55.0408648097635,5,0,33,18,8
"393",1621027,2016-06-12 18:03:00,"ул. Саввы Кожевникова 39.","Тушение пожара","Надворные постройки",82.9569444938358,54.9701724971263,10,3,34,5,8
"394",1621129,2016-06-13 04:22:00,"ул. Виктора Уса 7","Тушение пожара","Многоквартирный жилой дом",82.8835065345545,54.9383190654945,8,2,2,1.5,10
"395",1621188,2016-06-13 12:18:00,"ул. Ленинградская 273.","Тушение пожара","Транспортные средства",82.9775078658743,55.0054209061931,6,1,21,1,6
"396",1621536,2016-06-14 08:31:00,"ул. Котовского 15","Тушение пожара","Многоквартирный жилой дом",82.8765741199813,54.9918291842275,9,11,9,4,17
"397",1621544,2016-06-14 09:31:00,"ул. Большая 310 А.","Тушение пожара","Прочие обьекты пожара",82.8565572027614,55.0085643598698,10,2,97,0,0
"398",1621655,2016-06-14 15:18:00,"ул. Кирова 319.","Тушение пожара","Надворные постройки",82.9761764362785,55.0037098813746,18,7,135,114,9
"399",1621658,2016-06-14 15:30:00,"ул. Кошурникова 10.","Тушение пожара","Транспортные средства",82.9524647454073,55.0423979795263,7,1,1,0.3,8
"400",1621847,2016-06-14 23:05:00,"ул. Станционная 51.","Тушение пожара","Надворные постройки",82.8335405093027,54.9954682333972,6,3,27,24,6
"401",1621854,2016-06-15 00:51:00,"ул. Планировочная 12","Тушение пожара","Многоквартирный жилой дом",82.8850450727541,54.9938446296947,7,10,26,27,11
"402",1621857,2016-06-15 01:02:00,"ул. Дегтярева 23.","Тушение пожара","Прочие обьекты пожара",83.0404842994702,55.0431218223912,10,9,176,40,12
"403",1621858,2016-06-15 01:19:00,"ул. Вертковская 14/2.","Тушение пожара","Транспортные средства",82.8888876167249,54.9776635814475,10,1,2,1.5,4
"404",1621867,2016-06-15 02:12:00,"ул. Станкевича 48.","Тушение пожара","Одноквартирный жилой дом",82.8970642922005,55.1144055850946,14,4,62,100,8
"405",1621919,2016-06-15 14:02:00,"ул. Турухановская 95/1.","Тушение пожара","Прочие обьекты пожара",82.9622464497286,55.1616057860909,6,1,67,NA,NA
"406",1621998,2016-06-15 20:54:00,"ул. Сибиряков-Гвардейцев 54.","Тушение пожара","Здания производственного назначения",82.8944429166752,54.9523301751993,2,4,15,5,15
"407",1622012,2016-06-15 23:16:00,"ул. Тюленина 20.","Тушение пожара","Транспортные средства",82.9424505853637,55.1099459544571,7,1,10,0.5,5
"408",1622038,2016-06-16 09:31:00,"ул. Северная 33.","Тушение пожара","Здания, помещения учебно-воспитательного назначения",82.8969540505529,55.0663455834327,6,4,57,4,16
"409",1622054,2016-06-16 13:47:00,"ул. Мясниковой 3.","Тушение пожара","Надворные постройки",82.9565320984037,55.1029720587339,4,5,54,35,8
"410",1622082,2016-06-16 17:39:00,"ул. Спортивная 6","Тушение пожара","Многоквартирный жилой дом",82.8074376101652,54.9859349652663,4,NA,NA,NA,NA
"411",1622108,2016-06-16 22:31:00,"ул. Рубиновая 4.","Тушение пожара","Транспортные средства",83.0849619956411,54.8683636045202,4,1,23,3,6
"412",1622129,2016-06-17 00:40:00,"ул. Владимировская 4","Тушение пожара","Многоквартирный жилой дом",82.8925006081321,55.0326023766734,7,61,1,0,0
"413",1622226,2016-06-17 15:01:00,"ул. Богдана Хмельницкого 125.","Тушение пожара","Прочие обьекты пожара",82.9866051489843,55.1114377583033,5,3,16,6,11
"414",1622238,2016-06-17 15:26:00,"ул. Саввы Кожевникова 29/1.","Тушение пожара","Прочие обьекты пожара",82.9604761216696,54.9681380051014,10,3,43,30,9
"415",1622275,2016-06-17 19:22:00,"ул. Гоголя 27 А","Тушение пожара","Многоквартирный жилой дом",82.9327496141789,55.043837820273,6,3,107,30,22
"416",1622329,2016-06-18 08:21:00,"ул. Ломоносова 59","Тушение пожара","Многоквартирный жилой дом",82.9396213450769,55.0397960978627,5,NA,NA,NA,12
"417",1622525,2016-06-19 17:45:00,"ул. Покатная 130/1.","Тушение пожара","Прочие обьекты пожара",82.9511017096006,55.0260869217903,6,1,20,6,7
"418",1622569,2016-06-20 03:33:00,"ул. Седова 80.","Тушение пожара","Надворные постройки",82.9998205722184,55.0650243349946,8,1,74,15,12
"419",1622582,2016-06-19 22:38:00,"ул. Амосова 58","Тушение пожара","Многоквартирный жилой дом",82.9048856463803,55.1192783164359,8,5,51,NA,NA
"420",1622663,2016-06-20 23:58:00,"ул. Широкая 117","Тушение пожара","Многоквартирный жилой дом",82.8478312050051,54.9923413671734,6,2,7,5,13
"421",1622685,2016-06-21 03:26:00,"ул. Титова 15.","Тушение пожара","Прочие обьекты пожара",82.8796234724048,54.9820735187494,7,1,11,5,13
"422",1622703,2016-06-21 11:53:00,"ул. Объединения 39","Тушение пожара","Многоквартирный жилой дом",82.9747446499056,55.0994881435584,3,7,4,6,22
"423",1622796,2016-06-22 03:11:00,"ул. Селезнева 32.","Тушение пожара","Транспортные средства",82.9463276191398,55.0426525918072,7,1,12,4,6
"424",1622808,2016-06-22 09:22:00,"ул. Пионерская 38.","Тушение пожара","Одноквартирный жилой дом",82.9780399798695,54.9548637113227,8,10,81,54,14
"425",1622903,2016-06-23 08:56:00,"ул. Новоуральская 27","Тушение пожара","Многоквартирный жилой дом",82.9571732992132,55.1782322667517,3,2,9,2,10
"426",1622946,2016-06-23 13:02:00,"ул. Громова 2","Тушение пожара","Многоквартирный жилой дом",82.9088297070385,54.9396167278677,6,6,7,1,12
"427",1622993,2016-06-23 19:00:00,"ул. Строительная 1","Тушение пожара","Многоквартирный жилой дом",82.7103216809738,54.9916065505685,3,10,32,8,12
"428",1623140,2016-06-25 00:05:00,"ул. Халтурина 22.","Тушение пожара","Транспортные средства",82.8225892897668,54.9885710602286,8,1,7,5,7
"429",1623196,2016-06-25 13:36:00,"ул. Большевистская 270.","Тушение пожара","Сооружения, установки промышленного назначения",82.9946833741479,54.9853597540226,10,9,38,10,7
"430",1623273,2016-06-26 06:20:00,"ул. Советская Сибирь 68.","Тушение пожара","Одноквартирный жилой дом",82.9602400604079,55.0696747818785,9,6,55,26,16
"431",1623288,2016-06-26 11:10:00,"шс. Старое 11.","Тушение пожара","Одноквартирный жилой дом",82.910253607438,55.1200357124015,10,4,4,2,9
"432",1623441,2016-06-28 01:24:00,"ул. Кирова 319.","Тушение пожара","Транспортные средства",82.9761764362785,55.0037098813746,7,1,12,3,11
"433",1623449,2016-06-28 05:34:00,"ул. Кропоткина 449.","Тушение пожара","Транспортные средства",82.9520606100505,55.0598167294745,10,1,16,4,16
"434",1623524,2016-06-28 22:11:00,"ул. Новоселов 14","Тушение пожара","Многоквартирный жилой дом",83.0626784211603,54.9621905737719,8,5,24,12,11
"435",1623549,2016-06-29 08:06:00,"ул. Бориса Богаткова 137.","Тушение пожара",NA,82.9610221468792,55.0249327993816,4,15,59,170,18
"436",1623627,2016-06-29 23:12:00,"ул. Ленинградская 101/2.","Тушение пожара","Транспортные средства",82.9555437512985,55.0146075362154,5,1,4,2,7
"437",1623641,2016-06-30 01:52:00,"ул. Пархоменко 80.","Тушение пожара","Транспортные средства",82.8535197411288,54.9882558474961,6,1,7,4,10
"438",1623693,2016-06-30 15:47:00,"ул. Сухарная 2-Я 105.","Тушение пожара","Одноквартирный жилой дом",82.8679304083929,55.0425176696366,5,8,9,0.5,9
"439",1623699,2016-06-30 16:39:00,"ул. Портовая 1-Я 15.","Тушение пожара","Надворные постройки",82.8545299774,55.026223369256,9,2,6,3,12
"440",1623708,2016-06-30 19:22:00,"ул. Томьусинская 37.","Тушение пожара","Надворные постройки",82.8477697547643,55.0287998011516,10,3,70,50,16
"441",1623817,2016-07-01 23:29:00,"ул. Есенина 10","Тушение пожара","Многоквартирный жилой дом",82.9880059373842,55.0493483019544,8,7,60,0,9
"442",1623827,2016-07-02 05:04:00,"ул. Никитина 162.","Тушение пожара","Прочие обьекты пожара",82.9915055973251,55.0308932702142,8,6,25,10,14
"443",1623913,2016-07-03 08:24:00,"ул. Сургутская 26.","Тушение пожара","Транспортные средства",82.8841135817312,55.0396101718806,6,NA,NA,0,8
"444",1623946,2016-07-03 19:00:00,"ул. Куйбышева 2-Я 13.","Тушение пожара",NA,82.8549707520682,54.975361751454,7,1,24,1,11
"445",1623987,2016-05-18 08:00:00,"ул. Авиастроителей 6.","Тушение пожара","Транспортные средства",82.971237799821,55.0715277987931,NA,NA,NA,0,0
"446",1624049,2016-07-04 21:23:00,"ул. Садовая 1.","Тушение пожара","Надворные постройки",82.703786627012,54.9898683568853,3,14,101,60,9
"447",1624064,2016-07-05 02:11:00,"ул. Портовая 1-Я 79.","Тушение пожара","Одноквартирный жилой дом",82.8434043262225,55.0279238054662,9,13,147,120,15
"448",1624068,2016-07-05 03:40:00,"ул. Никитина 174.","Тушение пожара","Транспортные средства",82.9947638837968,55.0324913063454,5,1,10,1.5,9
"449",1624095,2016-07-05 15:32:00,"ул. Академическая 17","Тушение пожара","Многоквартирный жилой дом",83.1121952788126,54.8365502128936,7,6,29,1,17
"450",1624124,2016-07-06 02:50:00,"с/о. Рассвет 10.","Тушение пожара","Садовый дом, дача",82.9759735040429,55.1096132711456,10,2,34,12,8
"451",1624125,2016-07-06 02:27:00,"ул. Зорге 63.","Тушение пожара","Транспортные средства",82.9071398813877,54.9377576208846,8,1,16,2,6
"452",1624126,2016-07-06 02:31:00,"ул. Менделеева 18.","Тушение пожара","Прочие обьекты пожара",82.9662810658784,55.0747189309912,8,12,546,0,0
"453",1624127,2016-07-06 01:18:00,"ул. Герцена 100.","Тушение пожара","Надворные постройки",83.1002349192334,54.7462686190805,6,1,68,10,6
"454",1624216,2016-07-06 18:55:00,"ул. Ковальчук 185/1.","Тушение пожара","Многоквартирный жилой дом",82.9204984912977,55.0643511990385,5,1,2,0.5,8
"455",1624245,2016-07-07 02:11:00,"ул. Шорная 30.","Тушение пожара","Транспортные средства",82.8801313006601,55.0437920495294,4,1,6,4,7
"456",1624261,2016-07-07 04:20:00,"ул. Федосеева 1.","Тушение пожара","Здания,сооружения и помещения предприятий торговли",82.9695324700268,55.0393002096058,7,2,5,2,9
"457",1624266,2016-07-07 05:37:00,"ул. Красноармейская 139.","Тушение пожара","Надворные постройки",82.9728497384258,55.0165228543681,4,2,19,7,9
"458",1624347,2016-07-08 11:15:00,"пр-т. Дуси Ковальчук 179/4.","Тушение пожара","Прочие административные здания",82.9141072541217,55.0605866409929,6,1,7,15,8
"459",1624460,2016-07-09 21:09:00,"ул. Станционная 24.","Тушение пожара","Надворные постройки",82.8597303901856,54.9976986103873,7,8,43,1,13
"460",1624664,2016-07-12 01:25:00,"ул. Каменская 51/1.","Тушение пожара","Транспортные средства",82.9232356130513,55.0461157560952,8,1,37,13,13
"461",1624804,2016-07-13 14:10:00,"ул. 30 Лет Октября 25.","Тушение пожара","Транспортные средства",82.9551511483109,55.077857064062,6,1,6,2,7
"462",1624966,2016-07-15 02:49:00,"ул. Социалистическая 20.","Тушение пожара","Одноквартирный жилой дом",82.9324349923593,54.9808581660714,10,3,256,100,7
"463",1625120,2016-07-17 13:20:00,"Химзаводская 11/90.","Тушение пожара","Прочие административные здания",83.1356221927387,54.7358732713079,2,1,75,2,6
"464",1625134,2016-07-17 17:30:00,"ул. Дачное Шоссе 2/8.","Тушение пожара","Надворные постройки",82.8109605637036,55.0723273416302,4,2,185,160,18
"465",1625136,2016-07-17 18:00:00,"ул. Софийская 22.","Тушение пожара","Одноквартирный жилой дом",82.9385667203213,54.8406936063789,7,NA,NA,NA,NA
"466",1625168,2016-07-18 01:16:00,"ул. Виктора Уса 11/1.","Тушение пожара","Многоквартирный жилой дом",82.885797803379,54.9383247007748,7,2,13,116,23
"467",1625190,2016-07-18 12:10:00,"ул. Первомайская 128.","Тушение пожара","Здания производственного назначения",83.106775815911,54.9699943883329,8,1,20,10,8
"468",1625209,2016-07-18 15:54:00,"ул. Фурманова 36.","Тушение пожара",NA,83.0150673208663,55.0548210248496,3,4,36,6,8
"469",1625225,2016-07-18 20:12:00,"Лесное Шоссе 9.","Тушение пожара","Отдельно стоящая хозяйственная постройка",82.8183672012686,55.114743101478,10,7,10,2,27
"470",1625334,2016-07-20 10:56:00,"ул. Первомайская 128.","Тушение пожара","Транспортные средства",83.106775815911,54.9699943883329,5,1,4,4,7
"471",1625363,2016-07-20 18:57:00,"ул. Блюхера 46.","Тушение пожара","Транспортные средства",82.9060598228147,54.9926599931821,7,1,4,2,12
"472",1625555,2016-07-23 14:36:00,"ул. Солидарности 72.","Тушение пожара","Прочие обьекты пожара",82.9562683283444,55.1546304824102,5,1,5,NA,NA
"473",1625598,2016-07-24 00:56:00,"ул. Объединения 39/1","Тушение пожара","Многоквартирный жилой дом",82.9751075703496,55.1000866190457,8,5,33,16,25
"474",1625606,2016-07-24 05:03:00,"пер. Порт-Артурский 6-Й 1.","Тушение пожара","Транспортные средства",82.8026313195824,54.9899529137571,5,1,9,6,7
"475",1625636,2016-07-24 14:58:00,"ул. Кропоткина 461.","Тушение пожара",NA,82.9536833317757,55.0600635746274,10,3,16,50,8
"476",1625700,2016-07-25 06:55:00,"ул. Станционная 2-Я 38.","Тушение пожара","Складские здания",82.8033830122727,55.0140392442618,7,52,420,2000,76
"477",1625789,2016-07-26 01:23:00,"ул. Газонная 4.","Тушение пожара","Прочие обьекты пожара",83.114900561786,54.9496498137992,10,NA,NA,0,0
"478",1625832,2016-07-27 03:00:00,"ул. Гоголя 180.","Тушение пожара","Транспортные средства",82.9544820397515,55.0444359281281,6,1,19,3,8
"479",1625914,2016-07-28 04:19:00,"ул. Титова 198","Тушение пожара","Многоквартирный жилой дом",82.8292481611553,54.9805630781457,8,5,8,5,14
"480",1626039,2016-07-29 17:45:00,"ул. Красных Зорь 5.","Тушение пожара","Транспортные средства",82.9714682732903,55.1120650656,10,1,5,5,10
"481",1626071,2016-07-30 00:38:00,"ул. Путейцев 9.","Тушение пожара","Надворные постройки",82.6738848456285,54.9966303428296,9,7,152,60,6
"482",1626076,2016-07-30 02:32:00,"пер. Костычева 68.","Тушение пожара","Надворные постройки",82.8773386573152,54.9720934636166,7,2,79,73,13
"483",1626159,2016-07-31 02:13:00,"Ул.Пугачева 5.","Тушение пожара","Надворные постройки",83.0994729669428,54.7544753823666,8,1,76,80,13
"484",1626262,2016-08-01 08:59:00,"ул. Добролюбова 2.","Тушение пожара","Здания,сооружения и помещения предприятий торговли",82.9436502247226,55.0027121008911,6,2,19,2,8
"485",1626372,2016-08-02 13:26:00,"ул. Аникина Михаила 27/1.","Тушение пожара","Транспортные средства",82.9482498624032,54.9641266948448,9,1,11,5,11
"486",1626392,2016-08-02 16:54:00,"ул. Беловежская 10","Тушение пожара","Многоквартирный жилой дом",82.8936446449104,54.9645508625116,3,3,14,8,11
"487",1626449,2016-08-03 14:40:00,"ул. Станционная 2-Я 30.","Тушение пожара","Здания производственного назначения",82.8084548187,55.0120023404697,8,NA,NA,0,0
"488",1626714,2016-08-06 11:07:00,"ул. Комсомольская 1.","Тушение пожара","Транспортные средства",82.9683445975971,54.9548668530022,10,1,20,11,11
"489",1626744,2016-08-06 16:28:00,"пер. Вокзальный 51.","Тушение пожара","Прочие обьекты пожара",82.7282023555395,54.9883236384459,2,1,2,0.5,3
"490",1626834,2016-08-07 12:44:00,"ул. Степная 63","Тушение пожара","Многоквартирный жилой дом",82.8634129366286,54.9768151107185,6,2,6,10,15
"491",1626855,2016-08-07 15:57:00,"ул. Колхидская 10.","Тушение пожара","Здания, помещения здравоохранения и социального обслуживания населения",82.8167355510208,54.9826937696136,4,8,71,7,32
"492",1626963,2016-08-09 01:16:00,"ул. Макаренко 9.","Тушение пожара","Транспортные средства",82.9574222114651,55.0985636630675,5,1,13,5,12
"493",1626968,2016-08-09 02:46:00,"ул. Солидарности 83.","Тушение пожара","Транспортные средства",82.9533274240744,55.1542793954159,9,5,20,2,9
"494",1626973,2016-08-09 03:37:00,"ул. Приморская 23.","Тушение пожара","Транспортные средства",82.987220797436,54.8588580003661,4,1,10,1,5
"495",1626976,2016-08-09 06:02:00,"ул. Ударная 1/1","Тушение пожара","Многоквартирный жилой дом",82.8680770768946,54.9652471470076,10,8,10,4,15
"496",1627107,2016-08-10 19:02:00,"ул. Крамского 6.","Тушение пожара","Надворные постройки",82.9809384874047,55.0242639312228,6,1,10,2,4
"497",1627347,2016-08-13 03:50:00,"ул. Седова 126.","Тушение пожара","Транспортные средства",83.0041365533223,55.0684464420972,10,2,9,5,8
"498",1627398,2016-08-13 16:25:00,"Карла Маркса 5.","Тушение пожара","Многоквартирный жилой дом",83.0870006648878,54.7638406493348,9,3,87,10,8
"499",1627470,2016-08-14 05:43:00,"ул. Первомайская 204.","Тушение пожара","Многоквартирный жилой дом",83.0640260409126,54.9753934017356,8,1,12,2,11
"500",1627557,2016-08-14 20:37:00,"ул. Белинского 72.","Тушение пожара","Надворные постройки",83.0937378312924,54.7582257115324,8,1,72,15,6
"501",1627569,2016-08-14 23:15:00,"ул. Зыряновская 32.","Тушение пожара","Здания,сооружения и помещения предприятий торговли",82.9393898810858,55.0100231330288,5,1,19,6,7
"502",1627583,2016-08-15 03:30:00,"ул. Ватутина 4.","Тушение пожара","Транспортные средства",82.8815575055915,54.9910729592641,7,1,9,4,9
"503",1627638,2016-08-15 21:15:00,"ул. Ленинградская 216.","Тушение пожара","Одноквартирный жилой дом",82.9678771288497,55.0088036892349,4,4,16,6,10
"504",1627658,2016-08-16 01:36:00,"ул. Калинина 30.","Тушение пожара","Транспортные средства",82.7079324329167,54.9889806353006,4,1,11,1,3
"505",1627673,2016-08-16 02:59:00,"ул. Новая Заря 9.","Тушение пожара","Транспортные средства",82.9786286121662,55.0764753326681,9,3,10,1,4
"506",1627674,2016-08-16 03:00:00,"ул. Тульская 501.","Тушение пожара","Транспортные средства",82.8402263089774,54.9514826144797,4,1,9,4,6
"507",1627750,2016-08-16 17:59:00,"ул. Сибиряков-Гвардейцев 45.","Тушение пожара","Здания производственного назначения",82.9022449826102,54.9627208047972,3,4,20,12,13
"508",1627809,2016-08-17 03:15:00,"ул. Жуковского 4.","Тушение пожара","Одноквартирный жилой дом",82.7107639686867,54.9944075794875,10,5,26,15,8
"509",1627938,2016-08-18 14:22:00,"ул. Троллейная 138","Тушение пожара","Многоквартирный жилой дом",82.8471491684279,54.9631930669445,9,10,13,4,20
"510",1627944,2016-08-18 15:31:00,"ул. Халтурина 4","Тушение пожара","Многоквартирный жилой дом",82.82276626228,54.9921371783741,6,12,30,20,23
"511",1627946,2016-08-18 15:42:00,"ул. Ударная 25","Тушение пожара","Многоквартирный жилой дом",82.8635705854663,54.966582908102,7,6,31,32,15
"512",1627955,2016-08-18 18:14:00,"ул. Терешковой 6.","Тушение пожара","Транспортные средства",83.0990728081885,54.841133074991,6,1,12,4,6
"513",1628127,2016-08-20 04:27:00,"ул. Кирова 319.","Тушение пожара","Прочие обьекты пожара",82.9761764362785,55.0037098813746,4,2,85,30,8
"514",1628213,2016-08-20 21:43:00,"ул. Ульяновой Марии 1.","Тушение пожара","Прочие обьекты пожара",82.9738689986039,54.995069108715,6,3,14,10,7
"515",1628270,2016-08-21 13:32:00,"ул. Зорге 13.","Тушение пожара","Транспортные средства",82.9003902151868,54.9386666250269,5,1,8,4,9
"516",1628290,2016-08-21 18:01:00,"ул. Киевская 2","Тушение пожара","Многоквартирный жилой дом",82.8523182484457,54.9905712266732,5,3,12,10,15
"517",1628309,2016-08-21 21:02:00,"ул. Учительская 8","Тушение пожара","Многоквартирный жилой дом",82.9758960881001,55.0743027839786,4,6,7,2,12
"518",1628429,2016-08-23 02:37:00,"ул. Войкова 54.","Тушение пожара","Прочие обьекты пожара",82.9481547056918,55.0508539714838,4,6,41,15,21
"519",1628440,2016-08-23 07:17:00,"ул. Береговая 40 А.","Тушение пожара","Надворные постройки",82.7292575001794,54.9875622007545,3,NA,NA,0,5
"520",1628479,2016-08-23 15:54:00,"ул. Титова 1.","Тушение пожара","Многоквартирный жилой дом",82.8894945540795,54.9820148268971,8,NA,15,2,15
"521",1628532,2016-08-24 02:15:00,"мрн. Зеленый Бор 9.","Тушение пожара","Транспортные средства",83.0078052907147,55.0021001712349,8,2,2,1.5,5
"522",1628533,2016-08-24 03:56:00,"ул. Богдана Хмельницкого 29.","Тушение пожара","Транспортные средства",82.9476802091269,55.07289466865,9,4,10,4,10
"523",1628717,2016-08-25 17:20:00,"ул. Державина 30.","Тушение пожара","Прочие обьекты пожара",82.9289259103525,55.0391414409787,4,10,19,6,11
"524",1628760,2016-08-26 02:15:00,"ул. Ватутина 27","Тушение пожара","Многоквартирный жилой дом",82.8964645131995,54.983610565431,9,4,3,15,12
"525",1628880,2016-08-27 01:57:00,"ул. Солидарности 86.","Тушение пожара","Прочие обьекты пожара",82.9523995156332,55.1570367724344,10,2,31,NA,NA
"526",1629005,2016-08-28 02:00:00,"ул. Чапаева 7/2.","Тушение пожара","Транспортные средства",83.0718106589438,54.977303268443,5,NA,NA,0,8
"527",1629019,2016-08-28 03:10:00,"ул. Пермитина 18","Тушение пожара","Многоквартирный жилой дом",82.8906336896301,54.9918514158968,6,3,5,5,15
"528",1629032,2016-08-28 08:04:00,"ул. Далидовича 275.","Тушение пожара","Одноквартирный жилой дом",82.9809109022874,55.0119946337806,6,7,76,110,16
"529",1629040,2016-08-28 09:41:00,"ул. Караваева 25.","Тушение пожара","Одноквартирный жилой дом",83.0100611344887,55.0490177638057,6,4,83,121,16
"530",1629121,2016-08-29 01:18:00,"ул. Лейтенанта Амосова 53.","Тушение пожара","Прочие обьекты пожара",82.9638230525865,55.1571653901748,9,2,5,NA,NA
"531",1629126,2016-08-29 03:19:00,"Новороссийская 156.","Тушение пожара","Одноквартирный жилой дом",83.0175343937522,55.040892300184,7,6,90,18,12
"532",1629182,2016-08-29 18:04:00,"ул. Дениса Давыдова 2Б","Тушение пожара","Многоквартирный жилой дом",82.9648962906584,55.0710347627893,6,4,8,7,12
"533",1629209,2016-08-30 10:41:00,"ул. Зорге 70","Тушение пожара","Многоквартирный жилой дом",82.9039570902699,54.931608270657,9,3,11,4,15
"534",1629280,2016-08-31 03:46:00,"ул. Громова 14.","Тушение пожара","Здания,сооружения и помещения предприятий торговли",82.9081114521412,54.9366944358642,8,9,56,35,34
"535",1629402,2016-08-31 18:00:00,"ул. Гурьевская 45","Тушение пожара","Многоквартирный жилой дом",82.9479157666545,55.0114247834174,6,3,76,7,10
"536",1629489,2016-09-01 03:03:00,"ул. Объединения 92.","Тушение пожара","Транспортные средства",82.9676578002098,55.0973602301171,6,2,12,3,11
"537",1629563,2016-09-01 23:53:00,"ул. Железнодорожная 8","Тушение пожара","Многоквартирный жилой дом",82.8975329824669,55.0438715138265,5,4,8,5,11
"538",1629689,2016-09-03 05:00:00,"ул. Арсенальная 1.","Тушение пожара","Прочие обьекты пожара",82.7032946224204,55.0058503991951,9,1,39,NA,NA
"539",1629771,2016-09-03 19:09:00,"ул. Выборная 99/4","Тушение пожара","Многоквартирный жилой дом",83.0131383762722,55.004229075078,10,NA,NA,0,0
"540",1629809,2016-09-04 01:12:00,"ул. Тянь-Шаньская 16.","Тушение пожара","Надворные постройки",82.9062586456232,55.1145942417227,10,6,82,32,9
"541",1629820,2016-09-04 04:07:00,"ул. Ветлужская 16.","Тушение пожара","Многоквартирный жилой дом",82.972815552266,54.8541005759877,9,NA,NA,0,0
"542",1629909,2016-09-04 15:53:00,"ул. Флотская 19.","Тушение пожара","Прочие обьекты пожара",82.9964486612357,55.1710428291179,9,1,23,NA,NA
"543",1629922,2016-09-04 16:32:00,"ул. Петухова 82","Тушение пожара","Многоквартирный жилой дом",82.9147618745752,54.9396002631201,6,NA,NA,0.3,7
"544",1630006,2016-09-04 22:44:00,"ул. Дачная 23/5","Тушение пожара","Многоквартирный жилой дом",82.9039189849783,55.0615160680629,4,NA,NA,NA,10
"545",1630054,2016-09-05 02:47:00,"Ул. Кольцова 46","Тушение пожара",NA,83.0611518210174,54.7586768731306,10,8,83,20,9
"546",1630058,2016-09-05 07:44:00,"ул. Зорге 83","Тушение пожара","Многоквартирный жилой дом",82.9134181367182,54.9362476990241,8,5,6,3,11
"547",1630151,2016-09-05 19:48:00,"ул. Бориса Богаткова 165","Тушение пожара","Многоквартирный жилой дом",82.971857360877,55.0339434372443,8,NA,NA,0,0
"548",1630155,2016-09-05 20:27:00,"ул. Ударная 25/1.","Тушение пожара","Многоквартирный жилой дом",82.8635181377383,54.9675622452518,8,NA,NA,NA,NA
"549",1630171,2016-09-06 00:43:00,"с/о. Зеленый Мыс2 7я Авганская 220.","Тушение пожара","Садовый дом, дача",83.0720826988928,55.0344396483887,19,7,169,60,18
"550",1630240,2016-09-07 00:12:00,"ул. Ракитная 1-Я 128.","Тушение пожара","Транспортные средства",82.8684896254015,55.019957263253,8,2,18,6,8
"551",1630401,2016-09-08 06:57:00,"ул. Короленко 102.","Тушение пожара","Транспортные средства",82.9643048991858,55.0171159282188,4,1,17,4,8
"552",1630516,2016-09-08 18:38:00,"ул. Ковальчук 1.","Тушение пожара","Здания производственного назначения",82.881127278347,55.0473780667335,9,28,53,47,35
"553",1630672,2016-09-10 03:15:00,"ул. Флотская 21.","Тушение пожара","Неэксплуатируемые здания (сооружения)",82.995964046957,55.1718498038893,8,5,32,NA,NA
"554",1630757,2016-09-10 22:58:00,"Некрасова 27.","Тушение пожара","Надворные постройки",83.0838770019843,54.7567074954975,6,1,198,60,7
"555",1630767,2016-09-11 02:47:00,"ул. Печатников 13.","Тушение пожара","Здания,сооружения и помещения предприятий торговли",82.9758141843703,54.8651773311522,4,8,44,5,6
"556",1630770,2016-09-11 03:15:00,"ул. Титова 204.","Тушение пожара","Транспортные средства",82.8227331094998,54.9799397097119,7,1,10,NA,NA
"557",1630845,2016-09-11 17:06:00,"ул. Доватора 37","Тушение пожара","Многоквартирный жилой дом",83.0022275275973,55.0376938980579,9,3,52,10,9
"558",1630983,2016-09-12 06:53:00,"ул. Приморская 19.","Тушение пожара","Транспортные средства",82.9856091077504,54.8579011231447,6,1,11,5,7
"559",1631013,2016-09-12 11:31:00,"ул. Терешковой 33.","Тушение пожара","Транспортные средства",83.1167224210587,54.8373635627993,9,1,11,5.5,8
"560",1631022,2016-09-12 11:52:00,"ул. Советская 2.","Тушение пожара","Прочие обьекты пожара",82.9218613010119,55.0198572359512,5,1,7,0.2,6
"561",1631028,2016-09-12 12:34:00,"ул. Твардовского 22/1","Тушение пожара","Многоквартирный жилой дом",83.1235575024774,54.9340154576886,8,NA,2,0.3,9
"562",1631054,2016-09-12 13:43:00,"ул. Невельского 29.","Тушение пожара","Надворные постройки",82.8250782890187,54.993056760644,9,8,30,30.5,7
"563",1631220,2016-09-13 20:53:00,"ул. Чулымская 3-Я 165.","Тушение пожара","Надворные постройки",82.8894661649322,55.0112997405564,9,4,43,21,12
"564",1631240,2016-09-13 23:39:00,"ул. Тюменская 16.","Тушение пожара","Складские здания",82.9546832383115,54.954762821634,9,42,497,450,44
"565",1631243,2016-09-14 00:43:00,"ул. Сиреневая 7.","Тушение пожара","Одноквартирный жилой дом",83.0393438585752,54.8526912097498,8,3,13,7,10
"566",1631279,2016-09-14 11:09:00,"ул. Приграничная 1.","Тушение пожара","Прочие обьекты пожара",83.1421647976504,54.9371167749646,10,18,53,6,28
"567",1631367,2016-09-15 05:26:00,"ул. Кошурникова 37","Тушение пожара","Многоквартирный жилой дом",82.976224129376,55.0395132292227,7,1,13,4,10
"568",1631509,2016-09-16 03:18:00,"ул. Титова 11.","Тушение пожара","Транспортные средства",82.8825010089067,54.9822237791122,7,1,7,3,8
"569",1631634,2016-09-17 08:24:00,"ул. Тополевая 3.","Тушение пожара","Надворные постройки",82.9428177046129,55.0292761723364,7,3,25,5,4
"570",1631749,2016-09-17 22:51:00,"ул. Сеченова 17","Тушение пожара","Многоквартирный жилой дом",82.8836214158678,55.0818282245969,9,1,21,5,14
"571",1631783,2016-09-18 04:50:00,"ул. Русская 35 А.","Тушение пожара","Прочие административные здания",83.0516537790474,54.8464095743374,10,11,8,15,14
"572",1631834,2016-09-18 16:25:00,"ул. Солидарности 84.","Тушение пожара","Прочие обьекты пожара",82.953125804554,55.1567248463797,9,1,25,NA,NA
"573",1631871,2016-09-18 19:34:00,"ул. Амосова 62.","Тушение пожара","Прочие обьекты пожара",82.9042319745397,55.1193829996635,12,1,22,NA,NA
"574",1631911,2016-09-18 22:10:00,"с/о. ""Виктория"",Ул.Железнодоро 19.","Тушение пожара","Надворные постройки",82.9065652908583,55.0663639609579,7,1,39,12.5,7
"575",1631933,2016-09-19 03:05:00,"ул. Пестеля 29.","Тушение пожара",NA,82.8904680241003,55.0807735234828,10,10,160,135,14
"576",1631955,2016-09-19 09:43:00,"шс. Гусинобродское 41/1.","Тушение пожара","Прочие обьекты пожара",83.0322946714291,55.041557022847,7,5,88,200,12
"577",1632055,2016-09-19 22:31:00,"ул. Полярная 22.","Тушение пожара","Надворные постройки",82.8598222172784,55.0277316699657,2,6,130,30,11
"578",1632082,2016-09-20 03:32:00,"ул. Сухарная 101/1.","Тушение пожара","Транспортные средства",82.8625949473193,55.047431385213,7,1,13,4,6
"579",1632089,2016-09-20 06:57:00,"ул. Тюленина 22.","Тушение пожара","Здания,сооружения и помещения предприятий торговли",82.9392398942276,55.1107580420339,6,6,13,13,11
"580",1632213,2016-09-21 02:27:00,"ул. Приморская 9/1.","Тушение пожара","Прочие административные здания",82.982187822619,54.8567663302378,5,17,410,375,27
"581",1632219,2016-09-21 03:40:00,"ул. Плотинная 7.","Тушение пожара","Прочие обьекты пожара",83.0285520647255,54.8530186235675,10,1,147,20,4
"582",1632246,2016-09-21 15:24:00,"ул. Громова 23.","Тушение пожара","Транспортные средства",82.9104169438742,54.9324057126896,9,1,9,5,7
"583",1632296,2016-09-22 02:22:00,"ул. Звездная 22.","Тушение пожара","Прочие обьекты пожара",83.0680733114555,54.9540004775581,10,3,82,4,7
"584",1632307,2016-09-22 05:53:00,"ул. Выборная 211/5.","Тушение пожара","Прочие обьекты пожара",83.0552381712916,54.9952544018472,10,5,61,15,8
"585",1632334,2016-09-22 15:09:00,"ул. Кропоткина 119/1.","Тушение пожара","Транспортные средства",82.9204750118851,55.0559053034359,5,1,9,8,5
"586",1632336,2016-09-22 16:51:00,"ул. Ковальчук 185.","Тушение пожара","Многоквартирный жилой дом",82.9208824814929,55.0631740857028,5,NA,NA,0,0
"587",1632356,2016-09-22 19:32:00,"ул. Железнодорожная 9","Тушение пожара","Многоквартирный жилой дом",82.8990754156214,55.0452146267016,4,3,13,2,14
"588",1632380,2016-09-23 05:15:00,"Ул.Лунная 2.","Тушение пожара","Транспортные средства",83.0545377981884,54.749278343395,4,1,27,6,5
"589",1632404,2016-09-23 11:51:00,"ул. Доватора 126.","Тушение пожара","Транспортные средства",83.0005021990023,55.0361584099328,9,1,9,2,8
"590",1632564,2016-09-24 16:39:00,"ул. Шорная 62.","Тушение пожара","Одноквартирный жилой дом",82.8773369477215,55.0434196710872,5,4,18,40,7
"591",1632623,2016-09-24 22:35:00,"Ул. Гранитная 21.","Тушение пожара","Транспортные средства",83.075588439893,54.7324080397797,6,1,1,3,6
"592",1632709,2016-09-25 18:28:00,"ул. Колхидская 11","Тушение пожара","Многоквартирный жилой дом",82.8169935742401,54.9892733431808,5,8,10,10,12
"593",1632710,2016-09-25 18:52:00,"ул. Переселенческая 120.","Тушение пожара","Надворные постройки",82.9943572846179,55.0021616091921,10,2,66,15,8
"594",1632786,2016-09-26 01:18:00,"ул. Железнодорожная 5.","Тушение пожара","Многоквартирный жилой дом",82.8971159160427,55.0446412808077,6,4,19,5,25
"595",1632791,2016-09-26 02:20:00,"ул. Виктора Уса 1.","Тушение пожара","Транспортные средства",82.8841552230851,54.9416642013716,8,1,14,5,8
"596",1632797,2016-09-26 03:12:00,"ул. Тюленина 16/1.","Тушение пожара","Транспортные средства",82.9437905718416,55.1093439498214,6,NA,NA,0,0
"597",1632806,2016-09-26 06:08:00,"ул. Белинского 332.","Тушение пожара","Одноквартирный жилой дом",82.9778962599197,55.0095022635068,6,29,74,33.25,17
"598",1632899,2016-09-27 01:17:00,"ул. Коммунстроевская 15.","Тушение пожара","Одноквартирный жилой дом",82.9596750217928,55.0036966963454,7,14,236,111,15
"599",1633026,2016-09-28 02:33:00,"Степная 71.","Тушение пожара","Транспортные средства",82.8613149493706,54.9765420981644,5,1,14,2.5,8
"600",1633027,2016-09-28 03:09:00,"ул. Есенина 3/1.","Тушение пожара","Складские здания",82.9958116110919,55.0502549119941,10,25,531,163,26
"601",1633117,2016-09-28 20:35:00,"ул. Гоголя 34.","Тушение пожара","Транспортные средства",82.9305940942499,55.0429664822417,5,1,67,0.5,6
"602",1633141,2016-09-29 03:27:00,"ул. Котовского 15.","Тушение пожара","Транспортные средства",82.8765741199813,54.9918291842275,6,1,18,3,9
"603",1633345,2016-09-30 17:59:00,"ул. Выборная 139.","Тушение пожара","Транспортные средства",83.0226768568914,55.0077704245897,10,1,10,7,8
"604",1633350,2016-09-30 19:16:00,"ул. Рогачева 32.","Тушение пожара","Транспортные средства",83.0669315817069,54.7460991478664,4,1,5,3,4
"605",1633467,2016-10-01 19:12:00,"ул. Хитровская 20.","Тушение пожара","Одноквартирный жилой дом",82.9926288374104,54.9917608342304,8,1,5,0,0
"606",1633520,2016-10-02 00:24:00,"ул. Алмазная 8.","Тушение пожара","Надворные постройки",83.0072234233414,55.0619472535948,10,3,139,36,7
"607",1633624,2016-10-02 15:21:00,"ул. Петухова 40","Тушение пожара","Многоквартирный жилой дом",82.9037123131263,54.9396391983481,6,3,8,2,7
"608",1633650,2016-10-02 16:30:00,"ул. Солидарности 70.","Тушение пожара","Прочие обьекты пожара",82.9576011617105,55.1541062913602,7,1,17,NA,NA
"609",1633656,2016-10-02 16:48:00,"ул. Большая 233.","Тушение пожара","Одноквартирный жилой дом",82.8331858234024,55.0143745057503,7,18,245,99,12
"610",1633680,2016-10-02 18:49:00,"ул. Барьерная 7.","Тушение пожара","Прочие обьекты пожара",82.9873713991436,54.8626862332275,6,1,5,3,5
"611",1633686,2016-10-02 19:37:00,"ул. Народная 77.","Тушение пожара","Прочие обьекты пожара",82.9688916896338,55.081308003271,6,0,3,3,6
"612",1633697,2016-10-02 20:06:00,"Обские Зори 32.","Тушение пожара","Одноквартирный жилой дом",82.9574038552917,54.997012060732,10,20,112,100,14
"613",1633704,2016-10-02 20:30:00,"ул. Моисеенко 114.","Тушение пожара","Надворные постройки",82.966200150493,55.0166175654082,10,4,62,55,8
"614",1633747,2016-10-03 01:04:00,"ул. Тихвинская 8","Тушение пожара","Многоквартирный жилой дом",82.8673573149246,54.9786383231568,8,1,11,2,8
"615",1633760,2016-10-03 05:11:00,"ул. Беловежская 10.","Тушение пожара","Транспортные средства",82.8936446449104,54.9645508625116,5,1,13,5,7
"616",1633862,2016-10-03 18:33:00,"ул. Овчукова 4.","Тушение пожара","Надворные постройки",82.9653849538044,55.0850064656191,10,1,19,0,0
"617",1633874,2016-10-03 19:19:00,"ул. Грибоедова 80.","Тушение пожара","Транспортные средства",82.9670539280016,55.0139316582766,9,NA,NA,0,6
"618",1633927,2016-10-04 04:22:00,"ул. Гвардейской 9-Й Дивизии 17.","Тушение пожара","Транспортные средства",82.8474568330919,54.9678776444828,7,2,9,8,12
"619",1633970,2016-10-04 11:51:00,"Ул.Лунная 28.","Тушение пожара","Транспортные средства",83.0647954646309,54.74074805201,3,1,5,6,4
"620",1634080,2016-10-05 11:25:00,"ул. Толбухина 2","Тушение пожара","Многоквартирный жилой дом",83.0032011984687,55.0417020908148,7,4,12,12,25
"621",1634162,2016-10-05 18:10:00,"ул. Лазурная 27/1.","Тушение пожара","Прочие обьекты пожара",83.0185153515131,55.0344081577449,10,NA,NA,0,3
"622",1634234,2016-10-06 00:38:00,"ул. Военная 16.","Тушение пожара","Транспортные средства",82.9448114583201,55.0280420659061,7,1,10,6,10
"623",1634235,2016-10-06 00:39:00,"ул. Вавилова 14.","Тушение пожара","Здания, помещения здравоохранения и социального обслуживания населения",82.8954993085569,55.0571665785422,3,4,15,5,37
"624",1634349,2016-10-06 17:05:00,"ул. Панфиловцев 48.","Тушение пожара",NA,82.9840507495934,55.0217294098325,5,12,34,120,13
"625",1634388,2016-10-06 21:14:00,"ул. Солидарности 88.","Тушение пожара","Прочие обьекты пожара",82.9522624696614,55.156259079201,8,3,36,NA,NA
"626",1634399,2016-10-06 22:48:00,"ул. Ипподромская 45","Тушение пожара","Многоквартирный жилой дом",82.9403804565878,55.0466688101056,10,NA,NA,0,8
"627",1634490,2016-10-07 18:28:00,"пос. Плановый,Ул.Механизаторов 22.","Тушение пожара","Надворные постройки",82.9625918240368,54.8644268686112,5,1,59,10,9
"628",1634515,2016-10-08 00:16:00,"ул. Петухова 53.","Тушение пожара","Транспортные средства",82.8796905771744,54.9439096315896,8,6,3,10,11
"629",1634528,2016-10-08 04:46:00,"Бродского 2/1.","Тушение пожара","Отдельно стоящая хозяйственная постройка",82.9812657542155,55.0569362962436,4,1,67,15,7
"630",1634542,2016-10-08 09:08:00,"ул. Танковая 25.","Тушение пожара","Многоквартирный жилой дом",82.929320875643,55.0605567792352,8,7,17,7,15
"631",1634633,2016-10-09 02:49:00,"ул. Ленинградская 141.","Тушение пожара","Транспортные средства",82.9641154410809,55.0114370923056,7,1,10,4,4
"632",1634743,2016-10-09 19:48:00,"Микрорайон 56.","Тушение пожара","Транспортные средства",83.0587589726439,54.7430883758611,4,0,1,0.5,5
"633",1634913,2016-10-11 00:22:00,"ул. Панфиловцев 62.","Тушение пожара","Транспортные средства",82.9919838147685,55.0177892991787,5,3,11,10,8
"634",1634923,2016-10-11 03:29:00,"ул. Почтовый Лог 1.","Тушение пожара","Прочие обьекты пожара",82.9985192364388,55.0520147759972,8,8,42,6,9
"635",1635017,2016-10-12 02:44:00,"ул. Серебренниковская 4/1.","Тушение пожара","Транспортные средства",82.9302167747912,55.0169211985413,2,1,32,5,5
"636",1635018,2016-10-12 02:46:00,"ул. Волховская 33.","Тушение пожара","Транспортные средства",82.8346540856906,54.9701211384123,9,1,13,5,12
"637",1635055,2016-10-12 08:46:00,"пер. Новый 24.","Тушение пожара","Надворные постройки",83.1089229542146,54.8419819158039,8,2,74,30,10
"638",1635122,2016-10-12 20:44:00,"ул. Новая Днт ""Ивушка"" 80.","Тушение пожара","Садовый дом, дача",83.0391545191623,54.8839289285337,10,4,96,34,14
"639",1635141,2016-10-13 02:09:00,"ул. Заельцовская 1.","Тушение пожара","Транспортные средства",82.8892383872522,55.0487736520126,6,NA,NA,0,7
"640",1635301,2016-10-14 05:47:00,"ул. Гребенщикова 9.","Тушение пожара","Транспортные средства",82.9402305522224,55.1115323139652,6,3,14,5,8
"641",1635315,2016-10-14 08:19:00,"ул. Социалистическая 67.","Тушение пожара","Прочие обьекты пожара",82.9219473708461,54.974853905856,9,5,21,5,9
"642",1635391,2016-10-14 19:35:00,"с/о. ""Строитель"" Ул.Юго-Западн 29.","Тушение пожара","Садовый дом, дача",83.0994765182193,54.8594408796314,10,7,170,56,11
"643",1635424,2016-10-15 01:48:00,"Ул.Красина 9.","Тушение пожара","Одноквартирный жилой дом",83.0995735336787,54.7464743233834,8,1,114,30,8
"644",1635437,2016-10-15 05:51:00,"ул. Бронная 11.","Тушение пожара","Надворные постройки",82.9628499761577,54.9509018947773,10,3,62,21,16
"645",1635522,2016-10-15 23:56:00,"ул. Коминтерна 166.","Тушение пожара","Здания,сооружения и помещения предприятий торговли",83.0245213918846,55.0402898133562,10,3,85,49,12
"646",1635636,2016-10-17 01:34:00,"ул. Сухарная 138.","Тушение пожара","Надворные постройки",82.8642933123457,55.0453270899937,10,1,19,10.5,8
"647",1635638,2016-10-17 01:41:00,"ул. Макаренко 19/1","Тушение пожара","Многоквартирный жилой дом",82.9618125391014,55.0995290752905,7,2,22,15.5,14
"648",1635697,2016-10-17 15:48:00,"ул. Зорге 74.","Тушение пожара","Надворные постройки",82.9049881001713,54.9310112951424,8,1,69,6,10
"649",1635726,2016-10-17 20:52:00,"Ул. Кольцова 13.","Тушение пожара","Надворные постройки",83.0653610695264,54.757860351696,6,1,22,16,9
"650",1635742,2016-10-18 02:43:00,"ул. Державина 59.","Тушение пожара","Прочие обьекты пожара",82.9401893461885,55.0408648097635,6,3,65,18,5
"651",1635870,2016-10-18 20:47:00,"ул. Бетонная 6/1.","Тушение пожара","Прочие обьекты пожара",82.9150562755127,54.9554498308288,10,2,26,20,5
"652",1635961,2016-10-19 14:59:00,"ул. Ударная 15","Тушение пожара","Многоквартирный жилой дом",82.8660900977124,54.9652063854113,8,NA,NA,0,11
"653",1635965,2016-10-19 15:20:00,"ул. Чехова 411.","Тушение пожара",NA,82.9837076254,55.0051880972026,6,3,10,5,9
"654",1635980,2016-10-19 18:03:00,"ул. Академическая 13.","Тушение пожара","Надворные постройки",83.1111714475993,54.8367160706247,7,1,7,5,8
"655",1636039,2016-10-20 08:06:00,"ул. Жемчужная 24","Тушение пожара","Многоквартирный жилой дом",83.0913120686192,54.8376974580083,6,2,21,1.5,8
"656",1636087,2016-10-20 17:06:00,"шс. Гусинобродское 29.","Тушение пожара","Многоквартирный жилой дом",83.0127800330112,55.0385937254812,10,NA,NA,NA,8
"657",1636089,2016-10-20 17:57:00,"ул. Фабричная 10.","Тушение пожара","Складские здания",82.9117088236581,55.0203686235988,7,2,13,8,17
"658",1636142,2016-10-21 10:51:00,"ул. Бердышева 134.","Тушение пожара","Одноквартирный жилой дом",82.9480774555838,54.8679044215466,1,5,36,10,10
"659",1636173,2016-10-21 16:06:00,"ул. Науки 16.","Тушение пожара","Одноквартирный жилой дом",83.004123378472,55.0737062880656,8,1,17,1,9
"660",1636202,2016-10-21 18:38:00,"ул. Петухова 69/3 К.9.","Тушение пожара","Транспортные средства",82.911402659186,54.9434478708598,10,2,54,15,11
"661",1636228,2016-10-21 21:13:00,"ул. Большая 254/2.","Тушение пожара","Прочие обьекты пожара",82.8812977415627,55.0064269972088,10,2,46,0,10
"662",1636264,2016-10-22 08:36:00,"Ул. Карла Маркса 11.","Тушение пожара","Прочие обьекты пожара",83.0894815885513,54.7635892053564,8,1,21,15,9
"663",1636281,2016-10-22 09:58:00,"ул. Магистральная 4.","Тушение пожара","Здания,сооружения и помещения предприятий торговли",82.9859183345712,55.1601602612483,5,4,34,0,0
"664",1636364,2016-10-22 20:06:00,"ул. Полярная 107","Тушение пожара","Одноквартирный жилой дом",82.8416074404324,55.0316884813495,5,6,185,141.1,14
"665",1636382,2016-10-22 22:59:00,"ул. Грибоедова 73","Тушение пожара","Многоквартирный жилой дом",82.9644913106152,55.0127587612967,4,4,3,3,10
"666",1636387,2016-10-22 23:58:00,"ул. Уральская 12.","Тушение пожара","Надворные постройки",83.1315841296602,54.966067544162,7,2,33,27,9
"667",1636397,2016-10-23 02:31:00,"Ул. Искитимская 44.","Тушение пожара","Надворные постройки",83.0718337764878,54.7519576659184,6,1,41,15,10
"668",1636504,2016-10-24 11:14:00,"ул. Чехова 332.","Тушение пожара","Надворные постройки",82.9796382379123,55.0063987787693,4,4,48,30,10
"669",1636554,2016-10-24 21:21:00,"ул. Петухова 33.","Тушение пожара","Прочие административные здания",82.8471409342296,54.9456555652536,8,4,26,11,20
"670",1636699,2016-10-26 03:23:00,"ул. Октябрьская 15.","Тушение пожара","Прочие обьекты пожара",82.915426172431,55.0244022608367,5,1,15,4,8
"671",1636701,2016-10-26 04:03:00,"ул. Сибиряков-Гвардейцев 49.","Тушение пожара","Прочие административные здания",82.9005752533193,54.9521674875128,5,3,64,10,10
"672",1636718,2016-10-26 10:02:00,"ул. Северная 1-Я 50.","Тушение пожара",NA,82.7097693140757,54.9957508602714,7,15,111,124,6
"673",1636841,2016-10-26 23:10:00,"ул. Солидарности 99 К1.","Тушение пожара","Прочие обьекты пожара",82.955157315406,55.1522974978097,10,1,29,NA,NA
"674",1636865,2016-10-27 04:30:00,"ул. Слюдянка 81.","Тушение пожара","Прочие обьекты пожара",82.996205569912,54.8684007078051,8,2,56,52.5,8
"675",1636868,2016-10-27 04:37:00,"Ул. Огнеупорная 14.","Тушение пожара","Одноквартирный жилой дом",83.094716097303,54.7729807003485,10,2,142,100,13
"676",1636946,2016-10-27 19:04:00,"ул. Ясная 4 Д.","Тушение пожара","Одноквартирный жилой дом",83.0085522794286,54.8751854585981,13,2,19,20,10
"677",1637032,2016-10-28 20:44:00,"ул. Борьбы 7.","Тушение пожара","Одноквартирный жилой дом",83.1457231565205,54.9613974805636,7,3,110,48,7
"678",1637095,2016-10-29 12:35:00,"ул. Солидарности 86.","Тушение пожара","Прочие обьекты пожара",82.9523995156332,55.1570367724344,10,1,1,NA,NA
"679",1637160,2016-10-29 23:01:00,"ул. Декабристов 117.","Тушение пожара","Прочие обьекты пожара",82.9609519953049,55.005748348646,6,1,30,8,10
"680",1637182,2016-10-30 01:13:00,"ул. Славянская 99.","Тушение пожара","Одноквартирный жилой дом",82.9531726867174,55.0632015243246,10,9,12,5,9
"681",1637219,2016-10-30 10:47:00,"ул. Есенина 14","Тушение пожара","Многоквартирный жилой дом",82.9877347874068,55.0411233055709,10,10,54,9,9
"682",1637235,2016-10-30 15:03:00,"ул. Станционная 32.","Тушение пожара","Прочие обьекты пожара",82.8515352541539,54.9979236753188,5,5,18,15,15
"683",1637310,2016-10-31 07:59:00,"ул. Северная 1.","Тушение пожара","Транспортные средства",82.9203360804227,55.0733494559837,9,1,3,2,6
"684",1637467,2016-11-01 21:30:00,"пер. Экскаваторный 4-Й 1.","Тушение пожара","Одноквартирный жилой дом",82.7927690546311,55.0278901640893,10,6,96,50,16
"685",1637484,2016-11-02 02:50:00,"ул. Светлая 130.","Тушение пожара","Одноквартирный жилой дом",82.9471600059361,55.063720382797,10,4,178,288,16
"686",1637635,2016-11-03 05:17:00,"ул. Чаплыгина 109.","Тушение пожара","Транспортные средства",82.9308103079122,55.0273025141127,5,1,32,5,7
"687",1637665,2016-11-03 11:18:00,"ул. Широкая 117","Тушение пожара","Многоквартирный жилой дом",82.8478312050051,54.9923413671734,6,1,10,2,16
"688",1637677,2016-11-03 13:18:00,"ул. Первомайская 176.","Тушение пожара","Транспортные средства",83.0773210198369,54.9734086532814,4,1,7,5,8
"689",1637723,2016-11-03 18:57:00,"Проезд Садовый 54.","Тушение пожара","Надворные постройки",82.8466822662284,54.982999399964,10,1,114,48,11
"690",1637871,2016-11-04 17:58:00,"ул. Охотская 52.","Тушение пожара","Надворные постройки",82.906774157453,55.119621771432,10,4,62,30,13
"691",1637913,2016-11-05 00:32:00,"ул. Двинская 35.","Тушение пожара","Одноквартирный жилой дом",82.9540005879065,55.0616768842877,10,7,51,20,15
